{"version": 0.6, "generator": "Overpass API 0.7.62.8 e802775f", "osm3s": {"timestamp_osm_base": "2025-09-30T10:58:12Z", "copyright": "The data included in this document is from www.openstreetmap.org. The data is made available under ODbL."}, "elements": [{"type": "node", "id": 7657634879, "lat": -4.0152023, "lon": 103.2250977, "tags": {"amenity": "school", "description": "elementary School", "name": "SD Negeri 33 Pagar Alam"}}, {"type": "node", "id": 7657639743, "lat": -3.9551656, "lon": 103.1954765, "tags": {"amenity": "bank", "name": "Bank Bri Jarai"}}, {"type": "node", "id": 7657643690, "lat": -4.0088554, "lon": 103.2458865, "tags": {"amenity": "college", "description": "college school of economics", "name": "STIE Lembah Dempo Pagar Alam"}}, {"type": "node", "id": 7657649905, "lat": -3.9586347, "lon": 103.1997496, "tags": {"amenity": "school", "description": "high school", "name": "Sma Negeri 1 Jarai"}}, {"type": "node", "id": 7657653601, "lat": -4.0136346, "lon": 103.2497749, "tags": {"amenity": "school", "description": "high school", "name": "Sma Negeri 1 Pagar Alam"}}]}