{"version": 0.6, "generator": "Overpass API 0.7.62.8 e802775f", "osm3s": {"timestamp_osm_base": "2025-09-30T11:01:13Z", "copyright": "The data included in this document is from www.openstreetmap.org. The data is made available under ODbL."}, "elements": [{"type": "node", "id": 1704549045, "lat": -7.901181, "lon": 112.6628772, "tags": {"amenity": "police", "name": "Kantor Polisi Singosari"}}, {"type": "node", "id": 4824077170, "lat": -7.9651402, "lon": 112.6693258, "tags": {"addr:city": "Kab. Malang", "addr:housenumber": "8E07", "addr:postcode": "65154", "addr:street": "Cucak Rawun II", "amenity": "hospital", "name": "Open Dokter: Praktek Umum dr. Roro Puji Waty", "website": "https://opendokter.goodbarber.com/reservasi-praktek/i/12749115/dr-roro-puji-waty"}}, {"type": "node", "id": 4824322698, "lat": -7.9373345, "lon": 112.6608048, "tags": {"addr:city": "Malang", "addr:housenumber": "16", "addr:street": "Jalan Belimbing Indah Blok I", "amenity": "hospital", "name": "Praktek Umum dr. Wienanda"}}, {"type": "node", "id": 5267247091, "lat": -7.9323684, "lon": 112.7024666}, {"type": "node", "id": 5267247092, "lat": -7.9335371, "lon": 112.7042814}, {"type": "node", "id": 5267247093, "lat": -7.9346113, "lon": 112.7036189}, {"type": "node", "id": 5267247094, "lat": -7.9342878, "lon": 112.7030859}, {"type": "node", "id": 5267247095, "lat": -7.9345228, "lon": 112.702938}, {"type": "node", "id": 5267247096, "lat": -7.9336287, "lon": 112.7015793}, {"type": "node", "id": 5432267579, "lat": -7.8944196, "lon": 112.819498, "tags": {"amenity": "police", "name": "Kantor Polsek Nongkojajar"}}, {"type": "node", "id": 5436670201, "lat": -7.9806395, "lon": 112.6652245}, {"type": "node", "id": 5436670202, "lat": -7.9806264, "lon": 112.6654743}, {"type": "node", "id": 5436670203, "lat": -7.9808885, "lon": 112.6654883}, {"type": "node", "id": 5436670204, "lat": -7.9809016, "lon": 112.6652385}, {"type": "node", "id": 5436688810, "lat": -7.977129, "lon": 112.6654639}, {"type": "node", "id": 5436688811, "lat": -7.977173, "lon": 112.6655478}, {"type": "node", "id": 5436688812, "lat": -7.9772255, "lon": 112.6655207}, {"type": "node", "id": 5436688813, "lat": -7.9771864, "lon": 112.6654306}, {"type": "node", "id": 6072488063, "lat": -7.9585898, "lon": 112.6554298}, {"type": "node", "id": 6072488064, "lat": -7.9587314, "lon": 112.6553415}, {"type": "node", "id": 6072488065, "lat": -7.9586659, "lon": 112.6552343}, {"type": "node", "id": 6072488066, "lat": -7.9585242, "lon": 112.6553227}, {"type": "node", "id": 8343818430, "lat": -7.9470799, "lon": 112.6555427}, {"type": "node", "id": 8343818431, "lat": -7.9473961, "lon": 112.655355}, {"type": "node", "id": 8343818432, "lat": -7.947513, "lon": 112.6555883}, {"type": "node", "id": 8343818433, "lat": -7.9471623, "lon": 112.655752}, {"type": "node", "id": 8450104100, "lat": -7.8976306, "lon": 112.6635509, "tags": {"addr:city": "Malang", "addr:housenumber": "1", "addr:postcode": "65153", "addr:street": "Jalan Tohjoyo III", "amenity": "hospital", "emergency": "yes", "healthcare": "hospital", "healthcare:speciality": "general", "name": "Puskesmas Singosari", "operator": "Dinas Kesehatan Kabupaten Malang", "operator:type": "government"}}, {"type": "node", "id": 9387309577, "lat": -7.9012773, "lon": 112.6631667, "tags": {"amenity": "police", "name": "Satpas Polres Malang"}}, {"type": "node", "id": 9769377417, "lat": -7.8918593, "lon": 112.666982, "tags": {"amenity": "police", "name": "Koramil Singosari"}}, {"type": "node", "id": 10316324410, "lat": -7.9807575, "lon": 112.6654813}, {"type": "node", "id": 13142019398, "lat": -8.0127181, "lon": 112.7565055}, {"type": "node", "id": 13142019399, "lat": -8.0130501, "lon": 112.7571221}, {"type": "node", "id": 13142019400, "lat": -8.0134237, "lon": 112.7569425}, {"type": "node", "id": 13142037106, "lat": -8.0134357, "lon": 112.7561399}, {"type": "node", "id": 13142037107, "lat": -8.0137506, "lon": 112.7567693}, {"type": "way", "id": 544933403, "nodes": [5267247091, 5267247092, 5267247093, 5267247094, 5267247095, 5267247096, 5267247091], "tags": {"amenity": "hospital", "healthcare": "hospital", "name": "Rumah Sakit Angkatan Udara"}}, {"type": "way", "id": 564202539, "nodes": [5436670201, 5436670202, 10316324410, 5436670203, 5436670204, 5436670201], "tags": {"amenity": "hospital", "healthcare": "hospital", "name": "PUSKESMAS GRIBIG"}}, {"type": "way", "id": 564205229, "nodes": [5436688810, 5436688811, 5436688812, 5436688813, 5436688810], "tags": {"amenity": "hospital", "healthcare": "hospital", "name": "ApotekKamilia Pharmacy"}}, {"type": "way", "id": 646234953, "nodes": [6072488066, 6072488063, 6072488064, 6072488065, 6072488066], "tags": {"addr:full": "Jalan Simpang Sulfat Utara No. 60 A, Pandanwangi, Blimbing, Pandanwangi, Blimbing, Kota Malang, Jawa Timur 65126", "amenity": "hospital", "building": "yes", "name": "Rumah Sakit Ibu Dan Anak Puri Bunda"}}, {"type": "way", "id": 897782607, "nodes": [8343818430, 8343818431, 8343818432, 8343818433, 8343818430], "tags": {"amenity": "hospital", "healthcare": "hospital", "name": "Puskesmas Pandanwangi"}}, {"type": "way", "id": 1429654053, "nodes": [13142019398, 13142037106, 13142037107, 13142019400, 13142019399, 13142019398], "tags": {"amenity": "hospital", "denomination": "roman_catholic", "healthcare": "hospital", "name": "Rumah Sakit Sumber Sentosa", "religion": "christian"}}]}