{"version": 0.6, "generator": "Overpass API 0.7.62.8 e802775f", "osm3s": {"timestamp_osm_base": "2025-10-16T10:52:48Z", "copyright": "The data included in this document is from www.openstreetmap.org. The data is made available under ODbL."}, "elements": [{"type": "node", "id": 282496313, "lat": 36.7420558, "lon": 138.3497632, "tags": {"highway": "traffic_signals", "source": "bing"}}, {"type": "node", "id": 1063408484, "lat": 36.5329784, "lon": 138.5465834, "tags": {"amenity": "school", "isced:level": "1", "name": "\u6751\u7acb\u6771\u5c0f\u5b66\u6821"}}, {"type": "node", "id": 1205773778, "lat": 36.7108374, "lon": 138.4952669, "tags": {"amenity": "school", "name": "\u4fe1\u5dde\u5927\u5b66\u4ed8\u5c5e\u5fd7\u8cc0\u81ea\u7136\u6559\u80b2\u7814\u7a76\u65bd\u8a2d", "source": "Knowledge"}}, {"type": "node", "id": 1420708429, "lat": 36.438847, "lon": 138.774832, "tags": {"KSJ2:ADS": "\u5009\u6e15\u753a\u5ca9\u6c37724", "KSJ2:PubFacAdmin": "\u5e02\u533a\u753a\u6751", "amenity": "kindergarten", "name": "\u304f\u3089\u3076\u3061\u3053\u3069\u3082\u5e7c\u7a1a\u5712", "note": "National-Land Numerical Information (Public Facility) 2006, MLIT Japan", "note:ja": "\u56fd\u571f\u6570\u5024\u60c5\u5831\uff08\u516c\u5171\u65bd\u8a2d\u30c7\u30fc\u30bf\uff09\u5e73\u621019\u5e74\u3000\u56fd\u571f\u4ea4\u901a\u7701", "source": "KSJ2", "source_ref": "http://nlftp.mlit.go.jp/ksj/jpgis/datalist/KsjTmplt-P02-v2_0.html"}}, {"type": "node", "id": 1420708505, "lat": 36.484217, "lon": 138.461678, "tags": {"amenity": "social_facility", "name": "\u3072\u3060\u307e\u308a\u306e\u68ee\u767d\u6a3a\u8358\u5728\u5b85\u4ecb\u8b77\u652f\u63f4\u30bb\u30f3\u30bf\u30fc", "note": "National-Land Numerical Information (Public Facility) 2006, MLIT Japan", "note:ja": "\u56fd\u571f\u6570\u5024\u60c5\u5831\uff08\u516c\u5171\u65bd\u8a2d\u30c7\u30fc\u30bf\uff09\u5e73\u621019\u5e74\u3000\u56fd\u571f\u4ea4\u901a\u7701", "social_facility": "outreach", "social_facility:for": "senior", "source": "KSJ2", "source_ref": "http://nlftp.mlit.go.jp/ksj/jpgis/datalist/KsjTmplt-P02-v2_0.html"}}, {"type": "node", "id": 1420708850, "lat": 36.484217, "lon": 138.46171, "tags": {"KSJ2:ADS": "\u7530\u4ee3938-8", "KSJ2:PubFacAdmin": "\u6c11\u9593", "amenity": "nursing_home", "name": "\u30b1\u30a2\u30cf\u30a6\u30b9\u3064\u3064\u3058\u82d1", "note": "National-Land Numerical Information (Public Facility) 2006, MLIT Japan", "note:ja": "\u56fd\u571f\u6570\u5024\u60c5\u5831\uff08\u516c\u5171\u65bd\u8a2d\u30c7\u30fc\u30bf\uff09\u5e73\u621019\u5e74\u3000\u56fd\u571f\u4ea4\u901a\u7701", "source": "KSJ2", "source_ref": "http://nlftp.mlit.go.jp/ksj/jpgis/datalist/KsjTmplt-P02-v2_0.html"}}, {"type": "node", "id": 1420709096, "lat": 36.62452, "lon": 138.766076, "tags": {"KSJ2:ADS": "\u5927\u5b57\u4e0a\u6ca2\u6e212133-4", "KSJ2:PubFacAdmin": "\u5e02\u533a\u753a\u6751", "amenity": "nursing_home", "name": "\u4e2d\u4e4b\u6761\u753a\u5728\u5b85\u4ecb\u8b77\u652f\u63f4\u30bb\u30f3\u30bf\u30fc\u3055\u308f\u305f\u308a", "note": "National-Land Numerical Information (Public Facility) 2006, MLIT Japan", "note:ja": "\u56fd\u571f\u6570\u5024\u60c5\u5831\uff08\u516c\u5171\u65bd\u8a2d\u30c7\u30fc\u30bf\uff09\u5e73\u621019\u5e74\u3000\u56fd\u571f\u4ea4\u901a\u7701", "source": "KSJ2", "source_ref": "http://nlftp.mlit.go.jp/ksj/jpgis/datalist/KsjTmplt-P02-v2_0.html"}}, {"type": "node", "id": 1420709102, "lat": 36.669294, "lon": 138.789739, "tags": {"KSJ2:ADS": "\u5927\u5b57\u56db\u4e073626-4", "KSJ2:PubFacAdmin": "\u5e02\u533a\u753a\u6751", "amenity": "kindergarten", "name": "\u4e2d\u4e4b\u6761\u753a\u7acb\u56db\u4e07\u4fdd\u80b2\u6240", "note": "National-Land Numerical Information (Public Facility) 2006, MLIT Japan", "note:ja": "\u56fd\u571f\u6570\u5024\u60c5\u5831\uff08\u516c\u5171\u65bd\u8a2d\u30c7\u30fc\u30bf\uff09\u5e73\u621019\u5e74\u3000\u56fd\u571f\u4ea4\u901a\u7701", "source": "KSJ2", "source_ref": "http://nlftp.mlit.go.jp/ksj/jpgis/datalist/KsjTmplt-P02-v2_0.html"}}, {"type": "node", "id": 1420709106, "lat": 36.554331, "lon": 138.62773, "tags": {"KSJ2:ADS": "\u5927\u6d254", "KSJ2:PubFacAdmin": "\u5e02\u533a\u753a\u6751", "amenity": "kindergarten", "name": "\u4e2d\u592e\u5e7c\u7a1a\u5712", "note": "National-Land Numerical Information (Public Facility) 2006, MLIT Japan", "note:ja": "\u56fd\u571f\u6570\u5024\u60c5\u5831\uff08\u516c\u5171\u65bd\u8a2d\u30c7\u30fc\u30bf\uff09\u5e73\u621019\u5e74\u3000\u56fd\u571f\u4ea4\u901a\u7701", "source": "KSJ2", "source_ref": "http://nlftp.mlit.go.jp/ksj/jpgis/datalist/KsjTmplt-P02-v2_0.html"}}, {"type": "node", "id": 1420709261, "lat": 36.60455, "lon": 138.637488, "tags": {"KSJ2:ADS": "\u751f\u9808528-3", "KSJ2:PubFacAdmin": "\u5e02\u533a\u753a\u6751", "amenity": "kindergarten", "name": "\u516d\u5408\u5e7c\u7a1a\u5712", "note": "National-Land Numerical Information (Public Facility) 2006, MLIT Japan", "note:ja": "\u56fd\u571f\u6570\u5024\u60c5\u5831\uff08\u516c\u5171\u65bd\u8a2d\u30c7\u30fc\u30bf\uff09\u5e73\u621019\u5e74\u3000\u56fd\u571f\u4ea4\u901a\u7701", "source": "KSJ2", "source_ref": "http://nlftp.mlit.go.jp/ksj/jpgis/datalist/KsjTmplt-P02-v2_0.html"}}, {"type": "node", "id": 1420709262, "lat": 36.649488, "lon": 138.651558, "tags": {"amenity": "social_facility", "name": "\u516d\u5408\u6751\u5728\u5b85\u4ecb\u8b77\u652f\u63f4\u30bb\u30f3\u30bf\u30fc", "note": "National-Land Numerical Information (Public Facility) 2006, MLIT Japan", "note:ja": "\u56fd\u571f\u6570\u5024\u60c5\u5831\uff08\u516c\u5171\u65bd\u8a2d\u30c7\u30fc\u30bf\uff09\u5e73\u621019\u5e74\u3000\u56fd\u571f\u4ea4\u901a\u7701", "social_facility": "outreach", "social_facility:for": "senior", "source": "KSJ2", "source_ref": "http://nlftp.mlit.go.jp/ksj/jpgis/datalist/KsjTmplt-P02-v2_0.html"}}, {"type": "node", "id": 1420709733, "lat": 36.514672, "lon": 138.775384, "tags": {"KSJ2:ADS": "\u5927\u5b57\u5927\u6238350-3", "KSJ2:PubFacAdmin": "\u5e02\u533a\u753a\u6751", "amenity": "kindergarten", "name": "\u543e\u59bb\u753a\u7acb\u5927\u6238\u4fdd\u80b2\u6240", "note": "National-Land Numerical Information (Public Facility) 2006, MLIT Japan", "note:ja": "\u56fd\u571f\u6570\u5024\u60c5\u5831\uff08\u516c\u5171\u65bd\u8a2d\u30c7\u30fc\u30bf\uff09\u5e73\u621019\u5e74\u3000\u56fd\u571f\u4ea4\u901a\u7701", "source": "KSJ2", "source_ref": "http://nlftp.mlit.go.jp/ksj/jpgis/datalist/KsjTmplt-P02-v2_0.html"}}, {"type": "node", "id": 1420709734, "lat": 36.554917, "lon": 138.772521, "tags": {"KSJ2:ADS": "\u5927\u5b57\u5ca9\u4e0b71-3", "KSJ2:PubFacAdmin": "\u5e02\u533a\u753a\u6751", "amenity": "kindergarten", "name": "\u543e\u59bb\u753a\u7acb\u5ca9\u5cf6\u4fdd\u80b2\u6240", "note": "National-Land Numerical Information (Public Facility) 2006, MLIT Japan", "note:ja": "\u56fd\u571f\u6570\u5024\u60c5\u5831\uff08\u516c\u5171\u65bd\u8a2d\u30c7\u30fc\u30bf\uff09\u5e73\u621019\u5e74\u3000\u56fd\u571f\u4ea4\u901a\u7701", "source": "KSJ2", "source_ref": "http://nlftp.mlit.go.jp/ksj/jpgis/datalist/KsjTmplt-P02-v2_0.html"}}, {"type": "node", "id": 1420709751, "lat": 36.6945872, "lon": 138.7763939, "tags": {"amenity": "nursing_home", "name": "\u56db\u4e07\u8001\u4eba\u798f\u7949\u30bb\u30f3\u30bf\u30fc", "name:en": "Shima Elderly Welfare Center", "note": "National-Land Numerical Information (Public Facility) 2006, MLIT Japan", "note:ja": "\u56fd\u571f\u6570\u5024\u60c5\u5831\uff08\u516c\u5171\u65bd\u8a2d\u30c7\u30fc\u30bf\uff09\u5e73\u621019\u5e74\u3000\u56fd\u571f\u4ea4\u901a\u7701", "source": "KSJ2", "source_ref": "http://nlftp.mlit.go.jp/ksj/jpgis/datalist/KsjTmplt-P02-v2_0.html"}}, {"type": "node", "id": 1420709848, "lat": 36.509442, "lon": 138.752535, "tags": {"KSJ2:ADS": "\u672c\u5bbf407-1", "KSJ2:PubFacAdmin": "\u5e02\u533a\u753a\u6751", "amenity": "kindergarten", "name": "\u5742\u4e0a\u5e7c\u7a1a\u5712", "note": "National-Land Numerical Information (Public Facility) 2006, MLIT Japan", "note:ja": "\u56fd\u571f\u6570\u5024\u60c5\u5831\uff08\u516c\u5171\u65bd\u8a2d\u30c7\u30fc\u30bf\uff09\u5e73\u621019\u5e74\u3000\u56fd\u571f\u4ea4\u901a\u7701", "source": "KSJ2", "source_ref": "http://nlftp.mlit.go.jp/ksj/jpgis/datalist/KsjTmplt-P02-v2_0.html"}}, {"type": "node", "id": 1420710273, "lat": 36.505722, "lon": 138.511075, "tags": {"KSJ2:ADS": "\u5927\u7b39176-1", "KSJ2:PubFacAdmin": "\u5e02\u533a\u753a\u6751", "amenity": "kindergarten", "name": "\u5927\u7b39\u5e7c\u7a1a\u5712", "note": "National-Land Numerical Information (Public Facility) 2006, MLIT Japan", "note:ja": "\u56fd\u571f\u6570\u5024\u60c5\u5831\uff08\u516c\u5171\u65bd\u8a2d\u30c7\u30fc\u30bf\uff09\u5e73\u621019\u5e74\u3000\u56fd\u571f\u4ea4\u901a\u7701", "source": "KSJ2", "source_ref": "http://nlftp.mlit.go.jp/ksj/jpgis/datalist/KsjTmplt-P02-v2_0.html"}}, {"type": "node", "id": 1420710397, "lat": 36.515054, "lon": 138.531906, "tags": {"amenity": "social_facility", "name": "\u5b2c\u604b\u6751\u5728\u5b85\u4ecb\u8b77\u652f\u63f4\u30bb\u30f3\u30bf\u30fc", "note": "National-Land Numerical Information (Public Facility) 2006, MLIT Japan", "note:ja": "\u56fd\u571f\u6570\u5024\u60c5\u5831\uff08\u516c\u5171\u65bd\u8a2d\u30c7\u30fc\u30bf\uff09\u5e73\u621019\u5e74\u3000\u56fd\u571f\u4ea4\u901a\u7701", "social_facility": "outreach", "social_facility:for": "senior", "source": "KSJ2", "source_ref": "http://nlftp.mlit.go.jp/ksj/jpgis/datalist/KsjTmplt-P02-v2_0.html"}}, {"type": "node", "id": 1420710579, "lat": 36.506116, "lon": 138.739249, "tags": {"KSJ2:ADS": "\u5927\u5b57\u672c\u5bbf908", "KSJ2:PubFacAdmin": "\u6c11\u9593", "amenity": "nursing_home", "name": "\u5c71\u9ce9\u5b66\u5712", "note": "National-Land Numerical Information (Public Facility) 2006, MLIT Japan", "note:ja": "\u56fd\u571f\u6570\u5024\u60c5\u5831\uff08\u516c\u5171\u65bd\u8a2d\u30c7\u30fc\u30bf\uff09\u5e73\u621019\u5e74\u3000\u56fd\u571f\u4ea4\u901a\u7701", "source": "KSJ2", "source_ref": "http://nlftp.mlit.go.jp/ksj/jpgis/datalist/KsjTmplt-P02-v2_0.html"}}, {"type": "node", "id": 1420710586, "lat": 36.554723, "lon": 138.772466, "tags": {"KSJ2:ADS": "\u5ca9\u4e0b45", "KSJ2:PubFacAdmin": "\u5e02\u533a\u753a\u6751", "amenity": "kindergarten", "name": "\u5ca9\u5cf6\u5e7c\u7a1a\u5712", "note": "National-Land Numerical Information (Public Facility) 2006, MLIT Japan", "note:ja": "\u56fd\u571f\u6570\u5024\u60c5\u5831\uff08\u516c\u5171\u65bd\u8a2d\u30c7\u30fc\u30bf\uff09\u5e73\u621019\u5e74\u3000\u56fd\u571f\u4ea4\u901a\u7701", "source": "KSJ2", "source_ref": "http://nlftp.mlit.go.jp/ksj/jpgis/datalist/KsjTmplt-P02-v2_0.html"}}, {"type": "node", "id": 1420711112, "lat": 36.530053, "lon": 138.500769, "tags": {"KSJ2:ADS": "\u5e72\u4fe3356", "KSJ2:PubFacAdmin": "\u5e02\u533a\u753a\u6751", "amenity": "kindergarten", "name": "\u5e72\u4fe3\u5e7c\u7a1a\u5712", "note": "National-Land Numerical Information (Public Facility) 2006, MLIT Japan", "note:ja": "\u56fd\u571f\u6570\u5024\u60c5\u5831\uff08\u516c\u5171\u65bd\u8a2d\u30c7\u30fc\u30bf\uff09\u5e73\u621019\u5e74\u3000\u56fd\u571f\u4ea4\u901a\u7701", "source": "KSJ2", "source_ref": "http://nlftp.mlit.go.jp/ksj/jpgis/datalist/KsjTmplt-P02-v2_0.html"}}, {"type": "node", "id": 1420711189, "lat": 36.510168, "lon": 138.595763, "tags": {"KSJ2:ADS": "\u5fdc\u685119-1", "KSJ2:PubFacAdmin": "\u5e02\u533a\u753a\u6751", "amenity": "kindergarten", "name": "\u5fdc\u6851\u5e7c\u7a1a\u5712", "note": "National-Land Numerical Information (Public Facility) 2006, MLIT Japan", "note:ja": "\u56fd\u571f\u6570\u5024\u60c5\u5831\uff08\u516c\u5171\u65bd\u8a2d\u30c7\u30fc\u30bf\uff09\u5e73\u621019\u5e74\u3000\u56fd\u571f\u4ea4\u901a\u7701", "source": "KSJ2", "source_ref": "http://nlftp.mlit.go.jp/ksj/jpgis/datalist/KsjTmplt-P02-v2_0.html"}}, {"type": "node", "id": 1420711393, "lat": 36.645417, "lon": 138.648105, "tags": {"amenity": "school", "isced:level": "1", "name": "\u6751\u7acb\u5165\u5c71\u5c0f\u5b66\u6821", "note": "National-Land Numerical Information (Public Facility) 2006, MLIT Japan", "note:ja": "\u56fd\u571f\u6570\u5024\u60c5\u5831\uff08\u516c\u5171\u65bd\u8a2d\u30c7\u30fc\u30bf\uff09\u5e73\u621019\u5e74\u3000\u56fd\u571f\u4ea4\u901a\u7701", "source": "KSJ2", "source_ref": "http://nlftp.mlit.go.jp/ksj/jpgis/datalist/KsjTmplt-P02-v2_0.html"}}, {"type": "node", "id": 1420711394, "lat": 36.604159, "lon": 138.638811, "tags": {"KSJ2:ADS": "\u751f\u9808543", "KSJ2:PubFacAdmin": "\u5e02\u533a\u753a\u6751", "amenity": "school", "name": "\u6751\u7acb\u516d\u5408\u4e2d\u5b66\u6821", "note": "National-Land Numerical Information (Public Facility) 2006, MLIT Japan", "note:ja": "\u56fd\u571f\u6570\u5024\u60c5\u5831\uff08\u516c\u5171\u65bd\u8a2d\u30c7\u30fc\u30bf\uff09\u5e73\u621019\u5e74\u3000\u56fd\u571f\u4ea4\u901a\u7701", "source": "KSJ2", "source_ref": "http://nlftp.mlit.go.jp/ksj/jpgis/datalist/KsjTmplt-P02-v2_0.html"}}, {"type": "node", "id": 1420711405, "lat": 36.535163, "lon": 138.506019, "tags": {"amenity": "school", "isced:level": "1", "name": "\u6751\u7acb\u5e72\u4fe3\u5c0f\u5b66\u6821", "note": "National-Land Numerical Information (Public Facility) 2006, MLIT Japan", "note:ja": "\u56fd\u571f\u6570\u5024\u60c5\u5831\uff08\u516c\u5171\u65bd\u8a2d\u30c7\u30fc\u30bf\uff09\u5e73\u621019\u5e74\u3000\u56fd\u571f\u4ea4\u901a\u7701", "source": "KSJ2", "source_ref": "http://nlftp.mlit.go.jp/ksj/jpgis/datalist/KsjTmplt-P02-v2_0.html"}}, {"type": "node", "id": 1420711408, "lat": 36.536331, "lon": 138.552015, "tags": {"KSJ2:ADS": "\u4e09\u539f691", "KSJ2:PubFacAdmin": "\u5e02\u533a\u753a\u6751", "amenity": "school", "name": "\u6751\u7acb\u6771\u4e2d\u5b66\u6821", "note": "National-Land Numerical Information (Public Facility) 2006, MLIT Japan", "note:ja": "\u56fd\u571f\u6570\u5024\u60c5\u5831\uff08\u516c\u5171\u65bd\u8a2d\u30c7\u30fc\u30bf\uff09\u5e73\u621019\u5e74\u3000\u56fd\u571f\u4ea4\u901a\u7701", "source": "KSJ2", "source_ref": "http://nlftp.mlit.go.jp/ksj/jpgis/datalist/KsjTmplt-P02-v2_0.html"}}, {"type": "node", "id": 1420711409, "lat": 36.533025, "lon": 138.546488, "tags": {"amenity": "school", "isced:level": "1", "name": "\u6751\u7acb\u6771\u5c0f\u5b66\u6821", "note": "National-Land Numerical Information (Public Facility) 2006, MLIT Japan", "note:ja": "\u56fd\u571f\u6570\u5024\u60c5\u5831\uff08\u516c\u5171\u65bd\u8a2d\u30c7\u30fc\u30bf\uff09\u5e73\u621019\u5e74\u3000\u56fd\u571f\u4ea4\u901a\u7701", "source": "KSJ2", "source_ref": "http://nlftp.mlit.go.jp/ksj/jpgis/datalist/KsjTmplt-P02-v2_0.html"}}, {"type": "node", "id": 1420711439, "lat": 36.489444, "lon": 138.45908, "tags": {"amenity": "school", "isced:level": "1", "name": "\u6751\u7acb\u7530\u4ee3\u5c0f\u5b66\u6821", "note": "National-Land Numerical Information (Public Facility) 2006, MLIT Japan", "note:ja": "\u56fd\u571f\u6570\u5024\u60c5\u5831\uff08\u516c\u5171\u65bd\u8a2d\u30c7\u30fc\u30bf\uff09\u5e73\u621019\u5e74\u3000\u56fd\u571f\u4ea4\u901a\u7701", "source": "KSJ2", "source_ref": "http://nlftp.mlit.go.jp/ksj/jpgis/datalist/KsjTmplt-P02-v2_0.html"}}, {"type": "node", "id": 1420711442, "lat": 36.597187, "lon": 138.626895, "tags": {"amenity": "school", "isced:level": "1", "name": "\u6751\u7acb\u7b2c\u4e00\u5c0f\u5b66\u6821", "note": "National-Land Numerical Information (Public Facility) 2006, MLIT Japan", "note:ja": "\u56fd\u571f\u6570\u5024\u60c5\u5831\uff08\u516c\u5171\u65bd\u8a2d\u30c7\u30fc\u30bf\uff09\u5e73\u621019\u5e74\u3000\u56fd\u571f\u4ea4\u901a\u7701", "source": "KSJ2", "source_ref": "http://nlftp.mlit.go.jp/ksj/jpgis/datalist/KsjTmplt-P02-v2_0.html"}}, {"type": "node", "id": 1420711444, "lat": 36.511721, "lon": 138.515297, "tags": {"amenity": "school", "isced:level": "1", "name": "\u6751\u7acb\u897f\u5c0f\u5b66\u6821", "name:ja": "\u7fa4\u99ac\u770c\u5b2c\u604b\u6751\u7acb\u897f\u90e8\u5c0f\u5b66\u6821", "note": "National-Land Numerical Information (Public Facility) 2006, MLIT Japan", "note:ja": "\u56fd\u571f\u6570\u5024\u60c5\u5831\uff08\u516c\u5171\u65bd\u8a2d\u30c7\u30fc\u30bf\uff09\u5e73\u621019\u5e74\u3000\u56fd\u571f\u4ea4\u901a\u7701", "source": "KSJ2", "source_ref": "http://nlftp.mlit.go.jp/ksj/jpgis/datalist/KsjTmplt-P02-v2_0.html"}}, {"type": "node", "id": 1420711445, "lat": 36.507972, "lon": 138.552044, "tags": {"amenity": "school", "isced:level": "1", "name": "\u6751\u7acb\u938c\u539f\u5c0f\u5b66\u6821", "note": "National-Land Numerical Information (Public Facility) 2006, MLIT Japan", "note:ja": "\u56fd\u571f\u6570\u5024\u60c5\u5831\uff08\u516c\u5171\u65bd\u8a2d\u30c7\u30fc\u30bf\uff09\u5e73\u621019\u5e74\u3000\u56fd\u571f\u4ea4\u901a\u7701", "source": "KSJ2", "source_ref": "http://nlftp.mlit.go.jp/ksj/jpgis/datalist/KsjTmplt-P02-v2_0.html"}}, {"type": "node", "id": 1420711491, "lat": 36.537219, "lon": 138.551126, "tags": {"KSJ2:ADS": "\u4e09\u539f654-1", "KSJ2:PubFacAdmin": "\u5e02\u533a\u753a\u6751", "amenity": "kindergarten", "name": "\u6771\u90e8\u5e7c\u7a1a\u5712", "note": "National-Land Numerical Information (Public Facility) 2006, MLIT Japan", "note:ja": "\u56fd\u571f\u6570\u5024\u60c5\u5831\uff08\u516c\u5171\u65bd\u8a2d\u30c7\u30fc\u30bf\uff09\u5e73\u621019\u5e74\u3000\u56fd\u571f\u4ea4\u901a\u7701", "source": "KSJ2", "source_ref": "http://nlftp.mlit.go.jp/ksj/jpgis/datalist/KsjTmplt-P02-v2_0.html"}}, {"type": "node", "id": 1420712071, "lat": 36.610105, "lon": 138.795795, "tags": {"KSJ2:ADS": "\u4e0b\u6ca2\u6e2138-2", "KSJ2:PubFacAdmin": "\u5e02\u533a\u753a\u6751", "amenity": "kindergarten", "name": "\u6ca2\u7530\u5e7c\u7a1a\u5712", "note": "National-Land Numerical Information (Public Facility) 2006, MLIT Japan", "note:ja": "\u56fd\u571f\u6570\u5024\u60c5\u5831\uff08\u516c\u5171\u65bd\u8a2d\u30c7\u30fc\u30bf\uff09\u5e73\u621019\u5e74\u3000\u56fd\u571f\u4ea4\u901a\u7701", "source": "KSJ2", "source_ref": "http://nlftp.mlit.go.jp/ksj/jpgis/datalist/KsjTmplt-P02-v2_0.html"}}, {"type": "node", "id": 1420712313, "lat": 36.484216, "lon": 138.461633, "tags": {"KSJ2:ADS": "\u7530\u4ee3938-8", "KSJ2:PubFacAdmin": "\u6c11\u9593", "amenity": "nursing_home", "name": "\u7279\u5225\u990a\u8b77\u8001\u4eba\u30db\u30fc\u30e0\u3072\u3060\u307e\u308a\u306e\u68ee\u767d\u6a3a\u8358", "note": "National-Land Numerical Information (Public Facility) 2006, MLIT Japan", "note:ja": "\u56fd\u571f\u6570\u5024\u60c5\u5831\uff08\u516c\u5171\u65bd\u8a2d\u30c7\u30fc\u30bf\uff09\u5e73\u621019\u5e74\u3000\u56fd\u571f\u4ea4\u901a\u7701", "source": "KSJ2", "source_ref": "http://nlftp.mlit.go.jp/ksj/jpgis/datalist/KsjTmplt-P02-v2_0.html"}}, {"type": "node", "id": 1420712354, "lat": 36.481417, "lon": 138.445193, "tags": {"KSJ2:ADS": "\u7530\u4ee3651", "KSJ2:PubFacAdmin": "\u5e02\u533a\u753a\u6751", "amenity": "kindergarten", "name": "\u7530\u4ee3\u5e7c\u7a1a\u5712", "note": "National-Land Numerical Information (Public Facility) 2006, MLIT Japan", "note:ja": "\u56fd\u571f\u6570\u5024\u60c5\u5831\uff08\u516c\u5171\u65bd\u8a2d\u30c7\u30fc\u30bf\uff09\u5e73\u621019\u5e74\u3000\u56fd\u571f\u4ea4\u901a\u7701", "source": "KSJ2", "source_ref": "http://nlftp.mlit.go.jp/ksj/jpgis/datalist/KsjTmplt-P02-v2_0.html"}}, {"type": "node", "id": 1420712369, "lat": 36.554219, "lon": 138.626953, "tags": {"amenity": "school", "isced:level": "1", "name": "\u753a\u7acb\u4e2d\u592e\u5c0f\u5b66\u6821", "note": "National-Land Numerical Information (Public Facility) 2006, MLIT Japan", "note:ja": "\u56fd\u571f\u6570\u5024\u60c5\u5831\uff08\u516c\u5171\u65bd\u8a2d\u30c7\u30fc\u30bf\uff09\u5e73\u621019\u5e74\u3000\u56fd\u571f\u4ea4\u901a\u7701", "source": "KSJ2", "source_ref": "http://nlftp.mlit.go.jp/ksj/jpgis/datalist/KsjTmplt-P02-v2_0.html"}}, {"type": "node", "id": 1420712380, "lat": 36.461784, "lon": 138.593098, "tags": {"amenity": "school", "isced:level": "1", "name": "\u753a\u7acb\u5317\u8efd\u4e95\u6ca2\u5c0f\u5b66\u6821", "note": "National-Land Numerical Information (Public Facility) 2006, MLIT Japan", "note:ja": "\u56fd\u571f\u6570\u5024\u60c5\u5831\uff08\u516c\u5171\u65bd\u8a2d\u30c7\u30fc\u30bf\uff09\u5e73\u621019\u5e74\u3000\u56fd\u571f\u4ea4\u901a\u7701", "source": "KSJ2", "source_ref": "http://nlftp.mlit.go.jp/ksj/jpgis/datalist/KsjTmplt-P02-v2_0.html"}}, {"type": "node", "id": 1420712395, "lat": 36.510671, "lon": 138.753719, "tags": {"KSJ2:ADS": "\u672c\u5bbf389", "KSJ2:PubFacAdmin": "\u5e02\u533a\u753a\u6751", "amenity": "school", "name": "\u753a\u7acb\u5742\u4e0a\u4e2d\u5b66\u6821", "note": "National-Land Numerical Information (Public Facility) 2006, MLIT Japan", "note:ja": "\u56fd\u571f\u6570\u5024\u60c5\u5831\uff08\u516c\u5171\u65bd\u8a2d\u30c7\u30fc\u30bf\uff09\u5e73\u621019\u5e74\u3000\u56fd\u571f\u4ea4\u901a\u7701", "source": "KSJ2", "source_ref": "http://nlftp.mlit.go.jp/ksj/jpgis/datalist/KsjTmplt-P02-v2_0.html"}}, {"type": "node", "id": 1420712396, "lat": 36.50981, "lon": 138.75247, "tags": {"amenity": "school", "isced:level": "1", "name": "\u753a\u7acb\u5742\u4e0a\u5c0f\u5b66\u6821", "note": "National-Land Numerical Information (Public Facility) 2006, MLIT Japan", "note:ja": "\u56fd\u571f\u6570\u5024\u60c5\u5831\uff08\u516c\u5171\u65bd\u8a2d\u30c7\u30fc\u30bf\uff09\u5e73\u621019\u5e74\u3000\u56fd\u571f\u4ea4\u901a\u7701", "source": "KSJ2", "source_ref": "http://nlftp.mlit.go.jp/ksj/jpgis/datalist/KsjTmplt-P02-v2_0.html"}}, {"type": "node", "id": 1420712402, "lat": 36.556417, "lon": 138.773827, "tags": {"amenity": "school", "name": "\u65e7\u30fb\u5ca9\u5cf6\u4e2d\u5b66\u6821", "note": "National-Land Numerical Information (Public Facility) 2006, MLIT Japan", "note:ja": "\u56fd\u571f\u6570\u5024\u60c5\u5831\uff08\u516c\u5171\u65bd\u8a2d\u30c7\u30fc\u30bf\uff09\u5e73\u621019\u5e74\u3000\u56fd\u571f\u4ea4\u901a\u7701", "source": "KSJ2", "source_ref": "http://nlftp.mlit.go.jp/ksj/jpgis/datalist/KsjTmplt-P02-v2_0.html", "wikidata": "Q11526334", "wikipedia": "ja:\u6771\u543e\u59bb\u753a\u7acb\u5ca9\u5cf6\u4e2d\u5b66\u6821"}}, {"type": "node", "id": 1420712403, "lat": 36.554667, "lon": 138.771744, "tags": {"amenity": "school", "isced:level": "1", "name": "\u6771\u543e\u59bb\u753a\u7acb\u5ca9\u5cf6\u5c0f\u5b66\u6821", "note": "National-Land Numerical Information (Public Facility) 2006, MLIT Japan", "note:ja": "\u56fd\u571f\u6570\u5024\u60c5\u5831\uff08\u516c\u5171\u65bd\u8a2d\u30c7\u30fc\u30bf\uff09\u5e73\u621019\u5e74\u3000\u56fd\u571f\u4ea4\u901a\u7701", "source": "KSJ2", "source_ref": "http://nlftp.mlit.go.jp/ksj/jpgis/datalist/KsjTmplt-P02-v2_0.html"}}, {"type": "node", "id": 1420712406, "lat": 36.510834, "lon": 138.596068, "tags": {"amenity": "school", "isced:level": "1", "name": "\u753a\u7acb\u5fdc\u6851\u5c0f\u5b66\u6821", "note": "National-Land Numerical Information (Public Facility) 2006, MLIT Japan", "note:ja": "\u56fd\u571f\u6570\u5024\u60c5\u5831\uff08\u516c\u5171\u65bd\u8a2d\u30c7\u30fc\u30bf\uff09\u5e73\u621019\u5e74\u3000\u56fd\u571f\u4ea4\u901a\u7701", "source": "KSJ2", "source_ref": "http://nlftp.mlit.go.jp/ksj/jpgis/datalist/KsjTmplt-P02-v2_0.html"}}, {"type": "node", "id": 1420712416, "lat": 36.5482539, "lon": 138.6555235, "tags": {"amenity": "school", "name": "\u753a\u7acb\u6771\u4e2d\u5b66\u6821", "source": "KSJ2"}}, {"type": "node", "id": 1420712427, "lat": 36.609605, "lon": 138.792406, "tags": {"amenity": "school", "isced:level": "1", "name": "\u753a\u7acb\u6ca2\u7530\u5c0f\u5b66\u6821", "note": "National-Land Numerical Information (Public Facility) 2006, MLIT Japan", "note:ja": "\u56fd\u571f\u6570\u5024\u60c5\u5831\uff08\u516c\u5171\u65bd\u8a2d\u30c7\u30fc\u30bf\uff09\u5e73\u621019\u5e74\u3000\u56fd\u571f\u4ea4\u901a\u7701", "source": "KSJ2", "source_ref": "http://nlftp.mlit.go.jp/ksj/jpgis/datalist/KsjTmplt-P02-v2_0.html"}}, {"type": "node", "id": 1420712435, "lat": 36.5482744, "lon": 138.6807972, "tags": {"amenity": "school", "isced:level": "1", "name": "\u753a\u7acb\u7b2c\u4e00\u5c0f\u5b66\u6821", "source": "KSJ2"}}, {"type": "node", "id": 1420712451, "lat": 36.502724, "lon": 138.588736, "tags": {"KSJ2:ADS": "\u5fdc\u68511543-310", "KSJ2:PubFacAdmin": "\u5e02\u533a\u753a\u6751", "amenity": "school", "name": "\u753a\u7acb\u897f\u4e2d\u5b66\u6821", "note": "National-Land Numerical Information (Public Facility) 2006, MLIT Japan", "note:ja": "\u56fd\u571f\u6570\u5024\u60c5\u5831\uff08\u516c\u5171\u65bd\u8a2d\u30c7\u30fc\u30bf\uff09\u5e73\u621019\u5e74\u3000\u56fd\u571f\u4ea4\u901a\u7701", "source": "KSJ2", "source_ref": "http://nlftp.mlit.go.jp/ksj/jpgis/datalist/KsjTmplt-P02-v2_0.html"}}, {"type": "node", "id": 1420712452, "lat": 36.614827, "lon": 138.795656, "tags": {"KSJ2:ADS": "\u4e0b\u6ca2\u6e21575", "KSJ2:PubFacAdmin": "\u5e02\u533a\u753a\u6751", "amenity": "school", "name": "\u753a\u7acb\u897f\u4e2d\u5b66\u6821", "note": "National-Land Numerical Information (Public Facility) 2006, MLIT Japan", "note:ja": "\u56fd\u571f\u6570\u5024\u60c5\u5831\uff08\u516c\u5171\u65bd\u8a2d\u30c7\u30fc\u30bf\uff09\u5e73\u621019\u5e74\u3000\u56fd\u571f\u4ea4\u901a\u7701", "source": "KSJ2", "source_ref": "http://nlftp.mlit.go.jp/ksj/jpgis/datalist/KsjTmplt-P02-v2_0.html"}}, {"type": "node", "id": 1420712515, "lat": 36.535525, "lon": 138.551098, "tags": {"amenity": "school", "name": "\u7fa4\u99ac\u770c\u7acb\u5b2c\u604b\u9ad8\u7b49\u5b66\u6821", "note": "National-Land Numerical Information (Public Facility) 2006, MLIT Japan", "note:ja": "\u56fd\u571f\u6570\u5024\u60c5\u5831\uff08\u516c\u5171\u65bd\u8a2d\u30c7\u30fc\u30bf\uff09\u5e73\u621019\u5e74\u3000\u56fd\u571f\u4ea4\u901a\u7701", "source": "KSJ2", "source_ref": "http://nlftp.mlit.go.jp/ksj/jpgis/datalist/KsjTmplt-P02-v2_0.html", "wikidata": "Q11609649", "wikipedia": "ja:\u7fa4\u99ac\u770c\u7acb\u5b2c\u604b\u9ad8\u7b49\u5b66\u6821"}}, {"type": "node", "id": 1420712560, "lat": 36.551387, "lon": 138.631619, "tags": {"amenity": "school", "name": "\u7fa4\u99ac\u770c\u7acb\u9577\u91ce\u539f\u9ad8\u7b49\u5b66\u6821", "note": "National-Land Numerical Information (Public Facility) 2006, MLIT Japan", "note:ja": "\u56fd\u571f\u6570\u5024\u60c5\u5831\uff08\u516c\u5171\u65bd\u8a2d\u30c7\u30fc\u30bf\uff09\u5e73\u621019\u5e74\u3000\u56fd\u571f\u4ea4\u901a\u7701", "source": "KSJ2", "source_ref": "http://nlftp.mlit.go.jp/ksj/jpgis/datalist/KsjTmplt-P02-v2_0.html", "wikidata": "Q11609689", "wikipedia": "ja:\u7fa4\u99ac\u770c\u7acb\u9577\u91ce\u539f\u9ad8\u7b49\u5b66\u6821"}}, {"type": "node", "id": 1420712595, "lat": 36.5472415, "lon": 138.6192595, "tags": {"amenity": "nursing_home", "name": "\u793e\u4f1a\u798f\u7949\u6cd5\u4eba\u306b\u3057\u3042\u304c\u3064\u307e\u798f\u7949\u4f1a\u304b\u3089\u307e\u3064\u8358", "note": "National-Land Numerical Information (Public Facility) 2006, MLIT Japan", "note:ja": "\u56fd\u571f\u6570\u5024\u60c5\u5831\uff08\u516c\u5171\u65bd\u8a2d\u30c7\u30fc\u30bf\uff09\u5e73\u621019\u5e74\u3000\u56fd\u571f\u4ea4\u901a\u7701", "source": "KSJ2", "source_ref": "http://nlftp.mlit.go.jp/ksj/jpgis/datalist/KsjTmplt-P02-v2_0.html"}}, {"type": "node", "id": 1420712760, "lat": 36.6636, "lon": 138.612952, "tags": {"KSJ2:ADS": "\u5165\u5c711-1", "KSJ2:PubFacAdmin": "\u6c11\u9593", "amenity": "school", "name": "\u79c1\u7acb\u767d\u6839\u958b\u5584\u5b66\u6821\u4e2d\u7b49\u90e8", "note": "National-Land Numerical Information (Public Facility) 2006, MLIT Japan", "note:ja": "\u56fd\u571f\u6570\u5024\u60c5\u5831\uff08\u516c\u5171\u65bd\u8a2d\u30c7\u30fc\u30bf\uff09\u5e73\u621019\u5e74\u3000\u56fd\u571f\u4ea4\u901a\u7701", "source": "KSJ2", "source_ref": "http://nlftp.mlit.go.jp/ksj/jpgis/datalist/KsjTmplt-P02-v2_0.html"}}, {"type": "node", "id": 1420712770, "lat": 36.6638496, "lon": 138.6126194, "tags": {"amenity": "school", "name": "\u79c1\u7acb\u767d\u6839\u958b\u5584\u5b66\u6821\u9ad8\u7b49\u90e8", "note": "National-Land Numerical Information (Public Facility) 2006, MLIT Japan", "note:ja": "\u56fd\u571f\u6570\u5024\u60c5\u5831\uff08\u516c\u5171\u65bd\u8a2d\u30c7\u30fc\u30bf\uff09\u5e73\u621019\u5e74\u3000\u56fd\u571f\u4ea4\u901a\u7701", "source": "KSJ2", "source_ref": "http://nlftp.mlit.go.jp/ksj/jpgis/datalist/KsjTmplt-P02-v2_0.html"}}, {"type": "node", "id": 1420713574, "lat": 36.589603, "lon": 138.580316, "tags": {"KSJ2:ADS": "\u5927\u5b57\u524d\u53e3229", "KSJ2:PubFacAdmin": "\u5e02\u533a\u753a\u6751", "amenity": "kindergarten", "name": "\u8349\u6d25\u753a\u524d\u53e3\u3078\u304d\u5730\u4fdd\u80b2\u6240", "note": "National-Land Numerical Information (Public Facility) 2006, MLIT Japan", "note:ja": "\u56fd\u571f\u6570\u5024\u60c5\u5831\uff08\u516c\u5171\u65bd\u8a2d\u30c7\u30fc\u30bf\uff09\u5e73\u621019\u5e74\u3000\u56fd\u571f\u4ea4\u901a\u7701", "source": "KSJ2", "source_ref": "http://nlftp.mlit.go.jp/ksj/jpgis/datalist/KsjTmplt-P02-v2_0.html"}}, {"type": "node", "id": 1420713582, "lat": 36.6210002, "lon": 138.5900812, "tags": {"amenity": "social_facility", "name": "\u8349\u6d25\u753a\u5728\u5b85\u4ecb\u8b77\u652f\u63f4\u30bb\u30f3\u30bf\u30fc", "note": "National-Land Numerical Information (Public Facility) 2006, MLIT Japan", "note:ja": "\u56fd\u571f\u6570\u5024\u60c5\u5831\uff08\u516c\u5171\u65bd\u8a2d\u30c7\u30fc\u30bf\uff09\u5e73\u621019\u5e74\u3000\u56fd\u571f\u4ea4\u901a\u7701", "social_facility": "outreach", "social_facility:for": "senior", "source": "KSJ2", "source_ref": "http://nlftp.mlit.go.jp/ksj/jpgis/datalist/KsjTmplt-P02-v2_0.html"}}, {"type": "node", "id": 1420713849, "lat": 36.516805, "lon": 138.552127, "tags": {"KSJ2:ADS": "\u938c\u539f398", "KSJ2:PubFacAdmin": "\u5e02\u533a\u753a\u6751", "amenity": "kindergarten", "name": "\u938c\u539f\u5e7c\u7a1a\u5712", "note": "National-Land Numerical Information (Public Facility) 2006, MLIT Japan", "note:ja": "\u56fd\u571f\u6570\u5024\u60c5\u5831\uff08\u516c\u5171\u65bd\u8a2d\u30c7\u30fc\u30bf\uff09\u5e73\u621019\u5e74\u3000\u56fd\u571f\u4ea4\u901a\u7701", "source": "KSJ2", "source_ref": "http://nlftp.mlit.go.jp/ksj/jpgis/datalist/KsjTmplt-P02-v2_0.html"}}, {"type": "node", "id": 1420713861, "lat": 36.547276, "lon": 138.619259, "tags": {"amenity": "social_facility", "name": "\u9577\u91ce\u539f\u753a\u5728\u5b85\u4ecb\u8b77\u652f\u63f4\u30bb\u30f3\u30bf\u30fc", "note": "National-Land Numerical Information (Public Facility) 2006, MLIT Japan", "note:ja": "\u56fd\u571f\u6570\u5024\u60c5\u5831\uff08\u516c\u5171\u65bd\u8a2d\u30c7\u30fc\u30bf\uff09\u5e73\u621019\u5e74\u3000\u56fd\u571f\u4ea4\u901a\u7701", "social_facility": "outreach", "social_facility:for": "senior", "source": "KSJ2", "source_ref": "http://nlftp.mlit.go.jp/ksj/jpgis/datalist/KsjTmplt-P02-v2_0.html"}}, {"type": "node", "id": 1468913030, "lat": 36.6241117, "lon": 138.2586833, "tags": {"amenity": "kindergarten", "name": "\u6b63\u6e80\u5bfa\u4fdd\u80b2\u5712"}}, {"type": "node", "id": 1722513322, "lat": 36.7407815, "lon": 138.3693234, "tags": {"highway": "traffic_signals", "traffic_signals": "signal"}}, {"type": "node", "id": 1722519529, "lat": 36.7407061, "lon": 138.3695489}, {"type": "node", "id": 1722543359, "lat": 36.7376023, "lon": 138.3576061}, {"type": "node", "id": 1722543378, "lat": 36.7369626, "lon": 138.3561464}, {"type": "node", "id": 1722545109, "lat": 36.738587, "lon": 138.3549833}, {"type": "node", "id": 1722557866, "lat": 36.7221116, "lon": 138.3764189}, {"type": "node", "id": 1722580416, "lat": 36.738869, "lon": 138.3698138}, {"type": "node", "id": 1722580423, "lat": 36.7384708, "lon": 138.3698627}, {"type": "node", "id": 1723414791, "lat": 36.7671531, "lon": 138.3707019}, {"type": "node", "id": 1723580797, "lat": 36.7483527, "lon": 138.3620716}, {"type": "node", "id": 1723580805, "lat": 36.748359, "lon": 138.361647}, {"type": "node", "id": 1723581110, "lat": 36.7495146, "lon": 138.3626768}, {"type": "node", "id": 1723581113, "lat": 36.7492126, "lon": 138.361849}, {"type": "node", "id": 1723582136, "lat": 36.7485762, "lon": 138.3616611}, {"type": "node", "id": 1723582138, "lat": 36.7488069, "lon": 138.3634343}, {"type": "node", "id": 1723582139, "lat": 36.7484611, "lon": 138.3616215}, {"type": "node", "id": 1723582143, "lat": 36.7486418, "lon": 138.3618505}, {"type": "node", "id": 1723582144, "lat": 36.7485868, "lon": 138.36213}, {"type": "node", "id": 1723582146, "lat": 36.749738, "lon": 138.3633739}, {"type": "node", "id": 1723583911, "lat": 36.7430352, "lon": 138.3649123}, {"type": "node", "id": 1723583912, "lat": 36.7433462, "lon": 138.3648968}, {"type": "node", "id": 1723583913, "lat": 36.7429971, "lon": 138.3649005}, {"type": "node", "id": 1723583914, "lat": 36.7433633, "lon": 138.3648104}, {"type": "node", "id": 1723583915, "lat": 36.7433652, "lon": 138.3654329}, {"type": "node", "id": 1723583916, "lat": 36.7429398, "lon": 138.3652218}, {"type": "node", "id": 1723583917, "lat": 36.7431151, "lon": 138.3647717}, {"type": "node", "id": 1723583918, "lat": 36.7434632, "lon": 138.3649283}, {"type": "node", "id": 1723678972, "lat": 36.7678231, "lon": 138.3708821}, {"type": "node", "id": 1723678973, "lat": 36.7678384, "lon": 138.371}, {"type": "node", "id": 1723679916, "lat": 36.7740353, "lon": 138.3630565}, {"type": "node", "id": 1723679918, "lat": 36.7741721, "lon": 138.363084}, {"type": "node", "id": 1723679922, "lat": 36.7747849, "lon": 138.3628355}, {"type": "node", "id": 1723679929, "lat": 36.7747082, "lon": 138.3630684}, {"type": "node", "id": 1723679932, "lat": 36.7734958, "lon": 138.3628507}, {"type": "node", "id": 1723695374, "lat": 36.7683806, "lon": 138.3711066}, {"type": "node", "id": 1727245190, "lat": 36.7410579, "lon": 138.3770372}, {"type": "node", "id": 1727245201, "lat": 36.7411727, "lon": 138.3763611}, {"type": "node", "id": 1727312063, "lat": 36.7407558, "lon": 138.3714434}, {"type": "node", "id": 1727312066, "lat": 36.7399632, "lon": 138.3715099}, {"type": "node", "id": 1727312073, "lat": 36.7401239, "lon": 138.371465}, {"type": "node", "id": 1727312079, "lat": 36.741346, "lon": 138.371704}, {"type": "node", "id": 1727312084, "lat": 36.7396741, "lon": 138.3717596}, {"type": "node", "id": 1727314782, "lat": 36.7381711, "lon": 138.3705721}, {"type": "node", "id": 1727324389, "lat": 36.7430205, "lon": 138.3681351}, {"type": "node", "id": 1727324391, "lat": 36.7433437, "lon": 138.3683123}, {"type": "node", "id": 1727419059, "lat": 36.7875385, "lon": 138.3620486}, {"type": "node", "id": 1727419063, "lat": 36.7876013, "lon": 138.3620933}, {"type": "node", "id": 1727455193, "lat": 36.7675188, "lon": 138.3691909}, {"type": "node", "id": 1727455196, "lat": 36.7685988, "lon": 138.3691712}, {"type": "node", "id": 1727455201, "lat": 36.7678744, "lon": 138.3692604}, {"type": "node", "id": 1727455202, "lat": 36.7678984, "lon": 138.3690609}, {"type": "node", "id": 1727781991, "lat": 36.7429268, "lon": 138.3501653, "tags": {"highway": "traffic_signals", "source": "bing"}}, {"type": "node", "id": 1727789825, "lat": 36.7424211, "lon": 138.3516243}, {"type": "node", "id": 1727789828, "lat": 36.7421334, "lon": 138.3511957}, {"type": "node", "id": 1727793432, "lat": 36.7420998, "lon": 138.3505989}, {"type": "node", "id": 1727793599, "lat": 36.742121, "lon": 138.3509494}, {"type": "node", "id": 1728621558, "lat": 36.774902, "lon": 138.3625984}, {"type": "node", "id": 1728621559, "lat": 36.774814, "lon": 138.3628391}, {"type": "node", "id": 1728621560, "lat": 36.7748388, "lon": 138.3625935}, {"type": "node", "id": 1728621561, "lat": 36.7751207, "lon": 138.3620172}, {"type": "node", "id": 1728621568, "lat": 36.775046, "lon": 138.3620064}, {"type": "node", "id": 1728621574, "lat": 36.7735686, "lon": 138.3616461}, {"type": "node", "id": 1728621575, "lat": 36.7755113, "lon": 138.3616072}, {"type": "node", "id": 1728621576, "lat": 36.7734741, "lon": 138.3626814}, {"type": "node", "id": 1728621577, "lat": 36.7736973, "lon": 138.3617921}, {"type": "node", "id": 1728621578, "lat": 36.773401, "lon": 138.3628048}, {"type": "node", "id": 1728621580, "lat": 36.773719, "lon": 138.3608039}, {"type": "node", "id": 1728625049, "lat": 36.7385342, "lon": 138.3719038}, {"type": "node", "id": 1728625050, "lat": 36.7385221, "lon": 138.3716023}, {"type": "node", "id": 1728625051, "lat": 36.7403917, "lon": 138.3705736}, {"type": "node", "id": 1728625052, "lat": 36.7387215, "lon": 138.3698433}, {"type": "node", "id": 1728625053, "lat": 36.7399854, "lon": 138.3703944}, {"type": "node", "id": 1728625056, "lat": 36.7401423, "lon": 138.3699013}, {"type": "node", "id": 1728625061, "lat": 36.7382593, "lon": 138.371564}, {"type": "node", "id": 1730466117, "lat": 36.7408714, "lon": 138.3714835}, {"type": "node", "id": 1737953472, "lat": 36.7567449, "lon": 138.3673743}, {"type": "node", "id": 1737953477, "lat": 36.7569215, "lon": 138.3673526}, {"type": "node", "id": 1737953503, "lat": 36.7569428, "lon": 138.367623}, {"type": "node", "id": 1737953973, "lat": 36.7567662, "lon": 138.3676447}, {"type": "node", "id": 1737955575, "lat": 36.7433281, "lon": 138.3503594}, {"type": "node", "id": 1737955590, "lat": 36.7430766, "lon": 138.3518912}, {"type": "node", "id": 1737994899, "lat": 36.7456471, "lon": 138.3642694}, {"type": "node", "id": 1737994913, "lat": 36.745989, "lon": 138.3642371}, {"type": "node", "id": 1737995002, "lat": 36.7459001, "lon": 138.3640921}, {"type": "node", "id": 1737995022, "lat": 36.7459238, "lon": 138.3644184}, {"type": "node", "id": 1737995030, "lat": 36.7458778, "lon": 138.3643434}, {"type": "node", "id": 1737995041, "lat": 36.7458069, "lon": 138.3645301}, {"type": "node", "id": 1746671569, "lat": 36.6891493, "lon": 138.3179086}, {"type": "node", "id": 1746671587, "lat": 36.6893214, "lon": 138.3167714}, {"type": "node", "id": 1746671607, "lat": 36.6896548, "lon": 138.3168224}, {"type": "node", "id": 1746671632, "lat": 36.6896849, "lon": 138.3174955}, {"type": "node", "id": 1746671685, "lat": 36.6891235, "lon": 138.31723}, {"type": "node", "id": 1746671699, "lat": 36.6891751, "lon": 138.3172246}, {"type": "node", "id": 1746671746, "lat": 36.6895946, "lon": 138.3175143}, {"type": "node", "id": 1746671747, "lat": 36.6896096, "lon": 138.3178764}, {"type": "node", "id": 1746671792, "lat": 36.6891579, "lon": 138.3167849}, {"type": "node", "id": 1746671812, "lat": 36.6893257, "lon": 138.3168412}, {"type": "node", "id": 1786751166, "lat": 36.8254554, "lon": 138.3496876}, {"type": "node", "id": 1786751245, "lat": 36.825906, "lon": 138.3498149}, {"type": "node", "id": 1786751292, "lat": 36.8261027, "lon": 138.3498292}, {"type": "node", "id": 1786751303, "lat": 36.8261979, "lon": 138.3498488}, {"type": "node", "id": 1786751378, "lat": 36.8264962, "lon": 138.3507201}, {"type": "node", "id": 1798776880, "lat": 36.7761776, "lon": 138.3244128}, {"type": "node", "id": 1798776897, "lat": 36.7764254, "lon": 138.3241137}, {"type": "node", "id": 1798776908, "lat": 36.7765876, "lon": 138.3239971}, {"type": "node", "id": 1798776917, "lat": 36.7767572, "lon": 138.3239198}, {"type": "node", "id": 1798776936, "lat": 36.7769965, "lon": 138.3238993}, {"type": "node", "id": 1798776953, "lat": 36.7771738, "lon": 138.3239493}, {"type": "node", "id": 1801173208, "lat": 36.776108, "lon": 138.3251019}, {"type": "node", "id": 1801173244, "lat": 36.7763778, "lon": 138.3253168}, {"type": "node", "id": 1801173274, "lat": 36.7766909, "lon": 138.3255318}, {"type": "node", "id": 1801173281, "lat": 36.7768705, "lon": 138.325674}, {"type": "node", "id": 1801173312, "lat": 36.7773026, "lon": 138.3261736}, {"type": "node", "id": 1801173355, "lat": 36.7777754, "lon": 138.3257435}, {"type": "node", "id": 1805571773, "lat": 36.748624, "lon": 138.3492962}, {"type": "node", "id": 2022964559, "lat": 36.6483233, "lon": 138.3085864}, {"type": "node", "id": 2022964560, "lat": 36.6490197, "lon": 138.3099312}, {"type": "node", "id": 2022964561, "lat": 36.6496825, "lon": 138.3098132}, {"type": "node", "id": 2022964562, "lat": 36.6501301, "lon": 138.3080403}, {"type": "node", "id": 2022964563, "lat": 36.6488217, "lon": 138.3078069}, {"type": "node", "id": 2022964564, "lat": 36.6497867, "lon": 138.3097344}, {"type": "node", "id": 2022964565, "lat": 36.6486074, "lon": 138.3086615}, {"type": "node", "id": 2022964566, "lat": 36.6498719, "lon": 138.3094806}, {"type": "node", "id": 2022964567, "lat": 36.6491833, "lon": 138.3097596}, {"type": "node", "id": 2022964568, "lat": 36.6486065, "lon": 138.3097274}, {"type": "node", "id": 2022964569, "lat": 36.6484955, "lon": 138.3096593}, {"type": "node", "id": 2022964570, "lat": 36.6484094, "lon": 138.3079319}, {"type": "node", "id": 2022964571, "lat": 36.6484688, "lon": 138.3077533}, {"type": "node", "id": 2375766856, "lat": 36.6977261, "lon": 138.3205512}, {"type": "node", "id": 3110770622, "lat": 36.4460169, "lon": 138.77225}, {"type": "node", "id": 3110770624, "lat": 36.4462803, "lon": 138.7725278}, {"type": "node", "id": 3110770625, "lat": 36.446403, "lon": 138.7717761}, {"type": "node", "id": 3110770627, "lat": 36.4464609, "lon": 138.7717371}, {"type": "node", "id": 3110771630, "lat": 36.4465078, "lon": 138.7728788}, {"type": "node", "id": 3110771633, "lat": 36.4465328, "lon": 138.7728813}, {"type": "node", "id": 3110771634, "lat": 36.4465757, "lon": 138.772895}, {"type": "node", "id": 3110771635, "lat": 36.4466226, "lon": 138.7729371}, {"type": "node", "id": 3110771638, "lat": 36.4466874, "lon": 138.7714995}, {"type": "node", "id": 3110771640, "lat": 36.4466964, "lon": 138.7730227}, {"type": "node", "id": 3110771641, "lat": 36.4467523, "lon": 138.7730661}, {"type": "node", "id": 3110771642, "lat": 36.4469019, "lon": 138.7717513}, {"type": "node", "id": 3110771643, "lat": 36.4469877, "lon": 138.7730748}, {"type": "node", "id": 3110771644, "lat": 36.4469967, "lon": 138.7719808}, {"type": "node", "id": 3110771645, "lat": 36.4470656, "lon": 138.7720875}, {"type": "node", "id": 3110771646, "lat": 36.4471205, "lon": 138.7731096}, {"type": "node", "id": 3110771647, "lat": 36.4471264, "lon": 138.772111}, {"type": "node", "id": 3110771648, "lat": 36.447344, "lon": 138.7730463}, {"type": "node", "id": 3110771649, "lat": 36.4473829, "lon": 138.7729384}, {"type": "node", "id": 3110771650, "lat": 36.4474068, "lon": 138.7727511}, {"type": "node", "id": 3110771651, "lat": 36.4474437, "lon": 138.7726432}, {"type": "node", "id": 3110771652, "lat": 36.4474497, "lon": 138.7721371}, {"type": "node", "id": 3110771653, "lat": 36.4475026, "lon": 138.7722711}, {"type": "node", "id": 3110771654, "lat": 36.4475285, "lon": 138.7724745}, {"type": "node", "id": 3110771655, "lat": 36.4475415, "lon": 138.7724323}, {"type": "node", "id": 3386961531, "lat": 36.4290297, "lon": 138.7841068}, {"type": "node", "id": 3386961533, "lat": 36.429275, "lon": 138.783975}, {"type": "node", "id": 3386961534, "lat": 36.429446, "lon": 138.7838659}, {"type": "node", "id": 3386961535, "lat": 36.4296217, "lon": 138.7837098}, {"type": "node", "id": 3386961536, "lat": 36.4296292, "lon": 138.7852131}, {"type": "node", "id": 3386961537, "lat": 36.4297836, "lon": 138.7835442}, {"type": "node", "id": 3386961538, "lat": 36.4299668, "lon": 138.7834256}, {"type": "node", "id": 3386961540, "lat": 36.4299869, "lon": 138.7834614}, {"type": "node", "id": 3386961543, "lat": 36.4300565, "lon": 138.7833927}, {"type": "node", "id": 3386961544, "lat": 36.430136, "lon": 138.7854841}, {"type": "node", "id": 3386961545, "lat": 36.4301895, "lon": 138.7853185}, {"type": "node", "id": 3386961546, "lat": 36.4302002, "lon": 138.7852666}, {"type": "node", "id": 3386961547, "lat": 36.4302056, "lon": 138.7852001}, {"type": "node", "id": 3386961548, "lat": 36.4302109, "lon": 138.7849905}, {"type": "node", "id": 3386961549, "lat": 36.4302238, "lon": 138.784904}, {"type": "node", "id": 3386961550, "lat": 36.4302489, "lon": 138.7848222}, {"type": "node", "id": 3386961551, "lat": 36.430562, "lon": 138.7837951}, {"type": "node", "id": 3386961552, "lat": 36.4305674, "lon": 138.7838397}, {"type": "node", "id": 3906397209, "lat": 36.4055892, "lon": 138.2919495}, {"type": "node", "id": 3906397212, "lat": 36.4056046, "lon": 138.2925159}, {"type": "node", "id": 3906397213, "lat": 36.4056058, "lon": 138.2927227}, {"type": "node", "id": 3906397214, "lat": 36.4056097, "lon": 138.2916759}, {"type": "node", "id": 3906397216, "lat": 36.4056199, "lon": 138.2917777}, {"type": "node", "id": 3906397217, "lat": 36.4056212, "lon": 138.2924523}, {"type": "node", "id": 3906397219, "lat": 36.4056481, "lon": 138.2915582}, {"type": "node", "id": 3906397233, "lat": 36.4061523, "lon": 138.2911867}, {"type": "node", "id": 3906397234, "lat": 36.4061603, "lon": 138.2915741}, {"type": "node", "id": 3906397239, "lat": 36.4065595, "lon": 138.2911788}, {"type": "node", "id": 3906397247, "lat": 36.4067106, "lon": 138.2907772}, {"type": "node", "id": 3906397251, "lat": 36.4067208, "lon": 138.2910356}, {"type": "node", "id": 3906397565, "lat": 36.406885, "lon": 138.2928723}, {"type": "node", "id": 3906397590, "lat": 36.4070783, "lon": 138.2911207}, {"type": "node", "id": 3906397593, "lat": 36.4071026, "lon": 138.2908359}, {"type": "node", "id": 3906397618, "lat": 36.4076263, "lon": 138.2911572}, {"type": "node", "id": 3906397620, "lat": 36.407707, "lon": 138.2911286}, {"type": "node", "id": 3906397631, "lat": 36.4079759, "lon": 138.2910952}, {"type": "node", "id": 4696772905, "lat": 36.8005645, "lon": 138.3242481}, {"type": "node", "id": 4696772906, "lat": 36.8000439, "lon": 138.3243637}, {"type": "node", "id": 4696772907, "lat": 36.8000955, "lon": 138.3247079}, {"type": "node", "id": 4696772908, "lat": 36.8000283, "lon": 138.3247222}, {"type": "node", "id": 4696772909, "lat": 36.8000387, "lon": 138.3248311}, {"type": "node", "id": 4696772910, "lat": 36.8001081, "lon": 138.3248164}, {"type": "node", "id": 4696772911, "lat": 36.8001555, "lon": 138.3251713}, {"type": "node", "id": 4696772912, "lat": 36.8004675, "lon": 138.3250951}, {"type": "node", "id": 4696772913, "lat": 36.8005089, "lon": 138.325384}, {"type": "node", "id": 4696772914, "lat": 36.800711, "lon": 138.325335}, {"type": "node", "id": 4697227077, "lat": 36.6606309, "lon": 138.2902194}, {"type": "node", "id": 4697227078, "lat": 36.6604771, "lon": 138.2901584}, {"type": "node", "id": 4697227079, "lat": 36.6602132, "lon": 138.2903458}, {"type": "node", "id": 4697227080, "lat": 36.6600909, "lon": 138.2912651}, {"type": "node", "id": 4697227081, "lat": 36.660402, "lon": 138.2913174}, {"type": "node", "id": 4697323661, "lat": 36.6541347, "lon": 138.3167452}, {"type": "node", "id": 4697323662, "lat": 36.6539005, "lon": 138.3167844}, {"type": "node", "id": 4697323663, "lat": 36.6539459, "lon": 138.3172027}, {"type": "node", "id": 4697323664, "lat": 36.6541766, "lon": 138.3171548}, {"type": "node", "id": 4699260651, "lat": 36.652494, "lon": 138.3160261}, {"type": "node", "id": 4699260656, "lat": 36.6525172, "lon": 138.3167101}, {"type": "node", "id": 4699260657, "lat": 36.6482743, "lon": 138.3115193}, {"type": "node", "id": 4699260658, "lat": 36.6477122, "lon": 138.3112354}, {"type": "node", "id": 4699260659, "lat": 36.647269, "lon": 138.311047}, {"type": "node", "id": 4699260660, "lat": 36.6470245, "lon": 138.3117448}, {"type": "node", "id": 4699260661, "lat": 36.6469443, "lon": 138.3120908}, {"type": "node", "id": 4699260662, "lat": 36.6473236, "lon": 138.3122522}, {"type": "node", "id": 4699260663, "lat": 36.6473398, "lon": 138.3122335}, {"type": "node", "id": 4699260664, "lat": 36.6478361, "lon": 138.3124025}, {"type": "node", "id": 4699260665, "lat": 36.6537997, "lon": 138.3174559}, {"type": "node", "id": 4699260666, "lat": 36.652892, "lon": 138.3176114}, {"type": "node", "id": 4699260667, "lat": 36.6530215, "lon": 138.3188262}, {"type": "node", "id": 4699260668, "lat": 36.6526309, "lon": 138.3188834}, {"type": "node", "id": 4699260669, "lat": 36.6526428, "lon": 138.3190275}, {"type": "node", "id": 4699260670, "lat": 36.6528681, "lon": 138.3191815}, {"type": "node", "id": 4699260671, "lat": 36.6530454, "lon": 138.3194622}, {"type": "node", "id": 4699260672, "lat": 36.6529837, "lon": 138.3199193}, {"type": "node", "id": 4699260673, "lat": 36.6530235, "lon": 138.3203243}, {"type": "node", "id": 4699260674, "lat": 36.653157, "lon": 138.3204385}, {"type": "node", "id": 4699260675, "lat": 36.6530992, "lon": 138.3209329}, {"type": "node", "id": 4699260676, "lat": 36.6530913, "lon": 138.3211739}, {"type": "node", "id": 4699260677, "lat": 36.653734, "lon": 138.3208701}, {"type": "node", "id": 4699260678, "lat": 36.6541476, "lon": 138.3206571}, {"type": "node", "id": 4699260679, "lat": 36.6552469, "lon": 138.3179434}, {"type": "node", "id": 4699260680, "lat": 36.654908, "lon": 138.3179757}, {"type": "node", "id": 4699260681, "lat": 36.6547785, "lon": 138.3179161}, {"type": "node", "id": 4699260682, "lat": 36.6546589, "lon": 138.3178763}, {"type": "node", "id": 4699260683, "lat": 36.6545692, "lon": 138.3178639}, {"type": "node", "id": 4699260684, "lat": 36.6544497, "lon": 138.3179086}, {"type": "node", "id": 4699260685, "lat": 36.6543121, "lon": 138.3179856}, {"type": "node", "id": 4699260686, "lat": 36.6542045, "lon": 138.3180627}, {"type": "node", "id": 4699260687, "lat": 36.6539634, "lon": 138.3181173}, {"type": "node", "id": 4699260688, "lat": 36.6541396, "lon": 138.3199201}, {"type": "node", "id": 4699261089, "lat": 36.6542197, "lon": 138.320691}, {"type": "node", "id": 4699261090, "lat": 36.6543767, "lon": 138.3215457}, {"type": "node", "id": 4699261091, "lat": 36.6554854, "lon": 138.3211483}, {"type": "node", "id": 4699261092, "lat": 36.6553701, "lon": 138.3195846}, {"type": "node", "id": 4699261099, "lat": 36.6312265, "lon": 138.3112538}, {"type": "node", "id": 4699261100, "lat": 36.6310985, "lon": 138.3108606}, {"type": "node", "id": 4699261101, "lat": 36.6310096, "lon": 138.3109837}, {"type": "node", "id": 4699261102, "lat": 36.6304589, "lon": 138.3107325}, {"type": "node", "id": 4699261103, "lat": 36.6299604, "lon": 138.3111899}, {"type": "node", "id": 4699261104, "lat": 36.6298899, "lon": 138.3113916}, {"type": "node", "id": 4699261105, "lat": 36.6297376, "lon": 138.311805}, {"type": "node", "id": 4699261106, "lat": 36.6293209, "lon": 138.3116093}, {"type": "node", "id": 4699261107, "lat": 36.6291671, "lon": 138.3119807}, {"type": "node", "id": 4699261108, "lat": 36.6291815, "lon": 138.3120526}, {"type": "node", "id": 4699261109, "lat": 36.6299908, "lon": 138.3125924}, {"type": "node", "id": 4699261110, "lat": 36.6300747, "lon": 138.3123662}, {"type": "node", "id": 4699261111, "lat": 36.6302168, "lon": 138.3123322}, {"type": "node", "id": 4699261112, "lat": 36.6303274, "lon": 138.3122064}, {"type": "node", "id": 4699261113, "lat": 36.6306207, "lon": 138.3121685}, {"type": "node", "id": 4699261114, "lat": 36.6307089, "lon": 138.3120407}, {"type": "node", "id": 4699261115, "lat": 36.6307762, "lon": 138.3118809}, {"type": "node", "id": 4699261116, "lat": 36.6309589, "lon": 138.3116552}, {"type": "node", "id": 4699261117, "lat": 36.6310871, "lon": 138.3114375}, {"type": "node", "id": 4699261118, "lat": 36.6301943, "lon": 138.3113235}, {"type": "node", "id": 4699261119, "lat": 36.6303202, "lon": 138.3108485}, {"type": "node", "id": 4704629209, "lat": 36.6517836, "lon": 138.3037671}, {"type": "node", "id": 4704629210, "lat": 36.6519973, "lon": 138.3029613}, {"type": "node", "id": 4704629211, "lat": 36.6510341, "lon": 138.3025889}, {"type": "node", "id": 4704629212, "lat": 36.6506993, "lon": 138.3039019}, {"type": "node", "id": 4704629213, "lat": 36.6506246, "lon": 138.3038781}, {"type": "node", "id": 4704629214, "lat": 36.6505389, "lon": 138.3041066}, {"type": "node", "id": 4704629215, "lat": 36.650551, "lon": 138.3042951}, {"type": "node", "id": 4704629216, "lat": 36.6504787, "lon": 138.3043518}, {"type": "node", "id": 4704629217, "lat": 36.6505028, "lon": 138.3046254}, {"type": "node", "id": 4704629218, "lat": 36.6505684, "lon": 138.3046788}, {"type": "node", "id": 4704629219, "lat": 36.6506875, "lon": 138.3046854}, {"type": "node", "id": 4704629220, "lat": 36.6507424, "lon": 138.3047922}, {"type": "node", "id": 4704629221, "lat": 36.6508521, "lon": 138.3047855}, {"type": "node", "id": 4704629222, "lat": 36.6511439, "lon": 138.3047488}, {"type": "node", "id": 4704629223, "lat": 36.6512335, "lon": 138.3048473}, {"type": "node", "id": 4704629224, "lat": 36.6513326, "lon": 138.3048756}, {"type": "node", "id": 4704629225, "lat": 36.6514396, "lon": 138.3049907}, {"type": "node", "id": 4704629226, "lat": 36.6520887, "lon": 138.3029869}, {"type": "node", "id": 4704629227, "lat": 36.6518456, "lon": 138.3038548}, {"type": "node", "id": 4704629228, "lat": 36.6515195, "lon": 138.3050063}, {"type": "node", "id": 4704629229, "lat": 36.6516787, "lon": 138.3050096}, {"type": "node", "id": 4704629230, "lat": 36.651664, "lon": 138.3053352}, {"type": "node", "id": 4704629231, "lat": 36.6517436, "lon": 138.3054667}, {"type": "node", "id": 4704629232, "lat": 36.6519001, "lon": 138.3058484}, {"type": "node", "id": 4704629233, "lat": 36.6519243, "lon": 138.3058204}, {"type": "node", "id": 4704629234, "lat": 36.6519814, "lon": 138.3058538}, {"type": "node", "id": 4704629235, "lat": 36.6520368, "lon": 138.3058646}, {"type": "node", "id": 4704629236, "lat": 36.6521112, "lon": 138.3059325}, {"type": "node", "id": 4704629237, "lat": 36.652221, "lon": 138.3057417}, {"type": "node", "id": 4704629238, "lat": 36.6525342, "lon": 138.3059282}, {"type": "node", "id": 4704629239, "lat": 36.6527011, "lon": 138.3060317}, {"type": "node", "id": 4704629240, "lat": 36.6526847, "lon": 138.3060705}, {"type": "node", "id": 4704629241, "lat": 36.6528439, "lon": 138.3060964}, {"type": "node", "id": 4704629242, "lat": 36.6529278, "lon": 138.3061374}, {"type": "node", "id": 4704629243, "lat": 36.6530082, "lon": 138.3059864}, {"type": "node", "id": 4704629244, "lat": 36.653125, "lon": 138.3059325}, {"type": "node", "id": 4704629245, "lat": 36.6533871, "lon": 138.3059767}, {"type": "node", "id": 4704629246, "lat": 36.6534182, "lon": 138.3060565}, {"type": "node", "id": 4704629247, "lat": 36.6537106, "lon": 138.3058678}, {"type": "node", "id": 4704629248, "lat": 36.6537694, "lon": 138.3056435}, {"type": "node", "id": 4704629249, "lat": 36.6541768, "lon": 138.3056479}, {"type": "node", "id": 4704629250, "lat": 36.6542088, "lon": 138.3044144}, {"type": "node", "id": 4704629251, "lat": 36.6539796, "lon": 138.3042807}, {"type": "node", "id": 4704629252, "lat": 36.6539917, "lon": 138.3041017}, {"type": "node", "id": 4704629253, "lat": 36.6537201, "lon": 138.3039432}, {"type": "node", "id": 4704629254, "lat": 36.6537942, "lon": 138.3037654}, {"type": "node", "id": 4704629255, "lat": 36.6527941, "lon": 138.3032621}, {"type": "node", "id": 4704629256, "lat": 36.652291, "lon": 138.3030711}, {"type": "node", "id": 4704648010, "lat": 36.6237773, "lon": 138.330763}, {"type": "node", "id": 4704648011, "lat": 36.6235951, "lon": 138.3309781}, {"type": "node", "id": 4704648012, "lat": 36.6235337, "lon": 138.3309685}, {"type": "node", "id": 4704648013, "lat": 36.6233473, "lon": 138.3306894}, {"type": "node", "id": 4704648014, "lat": 36.6231502, "lon": 138.3312593}, {"type": "node", "id": 4704648015, "lat": 36.6230411, "lon": 138.3315126}, {"type": "node", "id": 4704648016, "lat": 36.6229122, "lon": 138.3316562}, {"type": "node", "id": 4704648017, "lat": 36.6227225, "lon": 138.3317489}, {"type": "node", "id": 4704648018, "lat": 36.6226258, "lon": 138.3318091}, {"type": "node", "id": 4704648019, "lat": 36.6225824, "lon": 138.331874}, {"type": "node", "id": 4704648020, "lat": 36.6225477, "lon": 138.3319728}, {"type": "node", "id": 4704648021, "lat": 36.6225589, "lon": 138.3324594}, {"type": "node", "id": 4704648022, "lat": 36.6231762, "lon": 138.3330648}, {"type": "node", "id": 4704648023, "lat": 36.6238257, "lon": 138.3327621}, {"type": "node", "id": 4704648024, "lat": 36.6240489, "lon": 138.3329181}, {"type": "node", "id": 4704648025, "lat": 36.6241809, "lon": 138.3328877}, {"type": "node", "id": 4704648026, "lat": 36.6242509, "lon": 138.3327924}, {"type": "node", "id": 4704648027, "lat": 36.6245992, "lon": 138.3321644}, {"type": "node", "id": 4704648028, "lat": 36.6246389, "lon": 138.3321458}, {"type": "node", "id": 4704648029, "lat": 36.6246724, "lon": 138.3321675}, {"type": "node", "id": 4704648030, "lat": 36.6247009, "lon": 138.3322014}, {"type": "node", "id": 4704648031, "lat": 36.62481, "lon": 138.3323219}, {"type": "node", "id": 4704648032, "lat": 36.6246736, "lon": 138.3319667}, {"type": "node", "id": 4704648033, "lat": 36.6245596, "lon": 138.3317304}, {"type": "node", "id": 4704648034, "lat": 36.6244294, "lon": 138.3315373}, {"type": "node", "id": 4704648035, "lat": 36.6242893, "lon": 138.3313674}, {"type": "node", "id": 4704648036, "lat": 36.6239361, "lon": 138.3309442}, {"type": "node", "id": 4704648037, "lat": 36.640934, "lon": 138.2859372}, {"type": "node", "id": 4704648038, "lat": 36.6412294, "lon": 138.2851951}, {"type": "node", "id": 4704648039, "lat": 36.6405262, "lon": 138.284675}, {"type": "node", "id": 4704648040, "lat": 36.6403106, "lon": 138.284509}, {"type": "node", "id": 4704648041, "lat": 36.6402371, "lon": 138.2846724}, {"type": "node", "id": 4704648042, "lat": 36.640349, "lon": 138.2847528}, {"type": "node", "id": 4704648043, "lat": 36.6400857, "lon": 138.2853622}, {"type": "node", "id": 4704648044, "lat": 36.6400112, "lon": 138.2853133}, {"type": "node", "id": 4704648045, "lat": 36.6397896, "lon": 138.2858209}, {"type": "node", "id": 4704648046, "lat": 36.64001, "lon": 138.2859706}, {"type": "node", "id": 4704648047, "lat": 36.6398858, "lon": 138.2862717}, {"type": "node", "id": 4704648048, "lat": 36.640161, "lon": 138.2864663}, {"type": "node", "id": 4704648049, "lat": 36.6401033, "lon": 138.286612}, {"type": "node", "id": 4704648050, "lat": 36.6403845, "lon": 138.2868277}, {"type": "node", "id": 4704648051, "lat": 36.6405089, "lon": 138.2865253}, {"type": "node", "id": 4704648052, "lat": 36.6405928, "lon": 138.286583}, {"type": "node", "id": 4704648053, "lat": 36.6407784, "lon": 138.2866399}, {"type": "node", "id": 4704648054, "lat": 36.641059, "lon": 138.286024}, {"type": "node", "id": 4704648055, "lat": 36.6406177, "lon": 138.2865326}, {"type": "node", "id": 4704674287, "lat": 36.662898, "lon": 138.3087823}, {"type": "node", "id": 4704674288, "lat": 36.6627472, "lon": 138.3087206}, {"type": "node", "id": 4704674289, "lat": 36.6627967, "lon": 138.3084827}, {"type": "node", "id": 4704674290, "lat": 36.6621935, "lon": 138.3083946}, {"type": "node", "id": 4704674291, "lat": 36.661753, "lon": 138.3083241}, {"type": "node", "id": 4704674292, "lat": 36.6613854, "lon": 138.3096194}, {"type": "node", "id": 4704674293, "lat": 36.6614231, "lon": 138.309731}, {"type": "node", "id": 4704674294, "lat": 36.6615527, "lon": 138.3097662}, {"type": "node", "id": 4704674295, "lat": 36.6618849, "lon": 138.3096781}, {"type": "node", "id": 4704674296, "lat": 36.6624927, "lon": 138.3095782}, {"type": "node", "id": 4704674297, "lat": 36.6627472, "lon": 138.3091083}, {"type": "node", "id": 4704674298, "lat": 36.6642132, "lon": 138.312064}, {"type": "node", "id": 4704674299, "lat": 36.6621365, "lon": 138.3113581}, {"type": "node", "id": 4704674300, "lat": 36.6620817, "lon": 138.3117176}, {"type": "node", "id": 4704674301, "lat": 36.6620621, "lon": 138.3119922}, {"type": "node", "id": 4704674302, "lat": 36.6620523, "lon": 138.3120898}, {"type": "node", "id": 4704674303, "lat": 36.6619642, "lon": 138.3130816}, {"type": "node", "id": 4704674304, "lat": 36.6619238, "lon": 138.3133791}, {"type": "node", "id": 4704674305, "lat": 36.6627349, "lon": 138.3137132}, {"type": "node", "id": 4704674306, "lat": 36.6629075, "lon": 138.3133699}, {"type": "node", "id": 4704674307, "lat": 36.6629491, "lon": 138.3133394}, {"type": "node", "id": 4704674308, "lat": 36.663003, "lon": 138.3133379}, {"type": "node", "id": 4704674309, "lat": 36.6638591, "lon": 138.3136073}, {"type": "node", "id": 4704674310, "lat": 36.6626431, "lon": 138.3232941}, {"type": "node", "id": 4704674311, "lat": 36.6620541, "lon": 138.3234791}, {"type": "node", "id": 4704674312, "lat": 36.6615829, "lon": 138.3236524}, {"type": "node", "id": 4704674313, "lat": 36.6618609, "lon": 138.3244131}, {"type": "node", "id": 4704674314, "lat": 36.6622002, "lon": 138.325212}, {"type": "node", "id": 4704674315, "lat": 36.6627751, "lon": 138.3250152}, {"type": "node", "id": 4704674316, "lat": 36.6633334, "lon": 138.3247714}, {"type": "node", "id": 4704674317, "lat": 36.6630437, "lon": 138.324187}, {"type": "node", "id": 4704674318, "lat": 36.6629636, "lon": 138.3241341}, {"type": "node", "id": 4704674319, "lat": 36.6629047, "lon": 138.3241488}, {"type": "node", "id": 4704674320, "lat": 36.6620184, "lon": 138.3248043}, {"type": "node", "id": 4709926859, "lat": 36.6462338, "lon": 138.2956124}, {"type": "node", "id": 4709926860, "lat": 36.644913, "lon": 138.2949002}, {"type": "node", "id": 4709926861, "lat": 36.6445789, "lon": 138.2957992}, {"type": "node", "id": 4709926862, "lat": 36.6442979, "lon": 138.2956357}, {"type": "node", "id": 4709926863, "lat": 36.6437951, "lon": 138.2970095}, {"type": "node", "id": 4709926864, "lat": 36.6437077, "lon": 138.2973052}, {"type": "node", "id": 4709926865, "lat": 36.644863, "lon": 138.2979512}, {"type": "node", "id": 4709926866, "lat": 36.6452689, "lon": 138.2975348}, {"type": "node", "id": 4709926867, "lat": 36.6455437, "lon": 138.296702}, {"type": "node", "id": 4709926868, "lat": 36.6456811, "lon": 138.296379}, {"type": "node", "id": 4709926869, "lat": 36.6460495, "lon": 138.2961805}, {"type": "node", "id": 4709926870, "lat": 36.6462374, "lon": 138.2955769}, {"type": "node", "id": 4709926871, "lat": 36.6466042, "lon": 138.2945302}, {"type": "node", "id": 4709926872, "lat": 36.6461525, "lon": 138.2941558}, {"type": "node", "id": 4709926873, "lat": 36.6455168, "lon": 138.2936811}, {"type": "node", "id": 4709926874, "lat": 36.6450973, "lon": 138.2947621}, {"type": "node", "id": 4709926875, "lat": 36.6451076, "lon": 138.2948583}, {"type": "node", "id": 4709926876, "lat": 36.645141, "lon": 138.2949481}, {"type": "node", "id": 4709926877, "lat": 36.645208, "lon": 138.2950187}, {"type": "node", "id": 4709926878, "lat": 36.6462168, "lon": 138.2941531}, {"type": "node", "id": 4709926879, "lat": 36.646628, "lon": 138.2944381}, {"type": "node", "id": 4709926880, "lat": 36.6462783, "lon": 138.2941956}, {"type": "node", "id": 4709926881, "lat": 36.6463123, "lon": 138.2941503}, {"type": "node", "id": 4709926882, "lat": 36.6465319, "lon": 138.2943489}, {"type": "node", "id": 4709926883, "lat": 36.6465098, "lon": 138.2943493}, {"type": "node", "id": 4709934808, "lat": 36.6601187, "lon": 138.307484}, {"type": "node", "id": 4709934809, "lat": 36.6599283, "lon": 138.3088344}, {"type": "node", "id": 4709934810, "lat": 36.6598949, "lon": 138.3088986}, {"type": "node", "id": 4709934811, "lat": 36.6599129, "lon": 138.3092578}, {"type": "node", "id": 4709934812, "lat": 36.6585671, "lon": 138.3094375}, {"type": "node", "id": 4709934813, "lat": 36.6585105, "lon": 138.3094246}, {"type": "node", "id": 4709934814, "lat": 36.6583303, "lon": 138.3094503}, {"type": "node", "id": 4709934815, "lat": 36.6581862, "lon": 138.3080902}, {"type": "node", "id": 4709934816, "lat": 36.6582634, "lon": 138.3079876}, {"type": "node", "id": 4709934817, "lat": 36.6585388, "lon": 138.3080549}, {"type": "node", "id": 4709934818, "lat": 36.6586417, "lon": 138.3077181}, {"type": "node", "id": 4709934819, "lat": 36.6591049, "lon": 138.3079491}, {"type": "node", "id": 4709934820, "lat": 36.6591975, "lon": 138.3077053}, {"type": "node", "id": 4709934821, "lat": 36.6598022, "lon": 138.3078753}, {"type": "node", "id": 4709934822, "lat": 36.659864, "lon": 138.3076283}, {"type": "node", "id": 4709934823, "lat": 36.659828, "lon": 138.3076123}, {"type": "node", "id": 4709934824, "lat": 36.6598254, "lon": 138.3073685}, {"type": "node", "id": 4746751455, "lat": 36.677697, "lon": 138.2594474}, {"type": "node", "id": 4746751456, "lat": 36.677603, "lon": 138.2606388}, {"type": "node", "id": 4746751457, "lat": 36.6755959, "lon": 138.2604206}, {"type": "node", "id": 4746751458, "lat": 36.675866, "lon": 138.2584165}, {"type": "node", "id": 4746751459, "lat": 36.6766681, "lon": 138.2585714}, {"type": "node", "id": 4746751460, "lat": 36.6768255, "lon": 138.2590581}, {"type": "node", "id": 4746751461, "lat": 36.7133976, "lon": 138.2826268}, {"type": "node", "id": 4746751462, "lat": 36.7134319, "lon": 138.2836022}, {"type": "node", "id": 4746751463, "lat": 36.712161, "lon": 138.2838429}, {"type": "node", "id": 4746751464, "lat": 36.7123039, "lon": 138.2826427}, {"type": "node", "id": 4752842576, "lat": 36.4102148, "lon": 138.2601281}, {"type": "node", "id": 4752842577, "lat": 36.4096582, "lon": 138.2621182}, {"type": "node", "id": 4752842578, "lat": 36.4089395, "lon": 138.2619591}, {"type": "node", "id": 4752842579, "lat": 36.4081028, "lon": 138.2615139}, {"type": "node", "id": 4752842580, "lat": 36.4082679, "lon": 138.2609617}, {"type": "node", "id": 4752842581, "lat": 36.4077908, "lon": 138.2603529}, {"type": "node", "id": 4752842582, "lat": 36.4081893, "lon": 138.259472}, {"type": "node", "id": 5015718642, "lat": 36.7219737, "lon": 138.3769401}, {"type": "node", "id": 5015718644, "lat": 36.7231122, "lon": 138.3764561}, {"type": "node", "id": 5015718645, "lat": 36.7233015, "lon": 138.3764045}, {"type": "node", "id": 5015718646, "lat": 36.7235101, "lon": 138.3775046}, {"type": "node", "id": 5015718647, "lat": 36.722323, "lon": 138.3778265}, {"type": "node", "id": 5015718648, "lat": 36.7220898, "lon": 138.377624}, {"type": "node", "id": 5015718649, "lat": 36.7219834, "lon": 138.3770648}, {"type": "node", "id": 5320336853, "lat": 36.7778137, "lon": 138.3250793}, {"type": "node", "id": 5320336854, "lat": 36.7780774, "lon": 138.3255371}, {"type": "node", "id": 5320336856, "lat": 36.7775756, "lon": 138.3259374}, {"type": "node", "id": 5320336857, "lat": 36.7773418, "lon": 138.3262162}, {"type": "node", "id": 5320336864, "lat": 36.7760328, "lon": 138.3245405}, {"type": "node", "id": 5320336870, "lat": 36.7772989, "lon": 138.3240251}, {"type": "node", "id": 5320336871, "lat": 36.7773637, "lon": 138.3243088}, {"type": "node", "id": 5320377640, "lat": 36.8334242, "lon": 138.3473033}, {"type": "node", "id": 5320377641, "lat": 36.8333327, "lon": 138.3489822}, {"type": "node", "id": 5320377642, "lat": 36.8342534, "lon": 138.3490823}, {"type": "node", "id": 5320377643, "lat": 36.835551, "lon": 138.3491177}, {"type": "node", "id": 5320377644, "lat": 36.836065, "lon": 138.3491735}, {"type": "node", "id": 5320377645, "lat": 36.8360595, "lon": 138.3467862}, {"type": "node", "id": 5320377646, "lat": 36.8356153, "lon": 138.3469049}, {"type": "node", "id": 5320377647, "lat": 36.8353527, "lon": 138.3469921}, {"type": "node", "id": 5320377648, "lat": 36.8351013, "lon": 138.3471562}, {"type": "node", "id": 5320377649, "lat": 36.8346695, "lon": 138.3472834}, {"type": "node", "id": 5320377650, "lat": 36.8342506, "lon": 138.347431}, {"type": "node", "id": 5320377651, "lat": 36.8341073, "lon": 138.3473837}, {"type": "node", "id": 5320377652, "lat": 36.8338805, "lon": 138.3471732}, {"type": "node", "id": 5320377653, "lat": 36.833764, "lon": 138.3470984}, {"type": "node", "id": 5320377654, "lat": 36.8335897, "lon": 138.3471119}, {"type": "node", "id": 5320377655, "lat": 36.8334273, "lon": 138.3471954}, {"type": "node", "id": 5321439435, "lat": 36.7952079, "lon": 138.3091016}, {"type": "node", "id": 5321439436, "lat": 36.7957583, "lon": 138.3094659}, {"type": "node", "id": 5321439437, "lat": 36.7956443, "lon": 138.3097533}, {"type": "node", "id": 5321439438, "lat": 36.7950916, "lon": 138.3093967}, {"type": "node", "id": 5325306027, "lat": 36.7890827, "lon": 138.3552833}, {"type": "node", "id": 5325306028, "lat": 36.7886433, "lon": 138.3553975}, {"type": "node", "id": 5325306029, "lat": 36.7886859, "lon": 138.3556533}, {"type": "node", "id": 5325306030, "lat": 36.7887921, "lon": 138.3556258}, {"type": "node", "id": 5325306031, "lat": 36.7888951, "lon": 138.3562436}, {"type": "node", "id": 5325306032, "lat": 36.7890754, "lon": 138.3561967}, {"type": "node", "id": 5325306033, "lat": 36.7890534, "lon": 138.356065}, {"type": "node", "id": 5325306034, "lat": 36.7889814, "lon": 138.3560837}, {"type": "node", "id": 5325306035, "lat": 36.7889093, "lon": 138.3556512}, {"type": "node", "id": 5325306036, "lat": 36.7889405, "lon": 138.3556431}, {"type": "node", "id": 5325306037, "lat": 36.788918, "lon": 138.3555075}, {"type": "node", "id": 5325306038, "lat": 36.7890104, "lon": 138.3554835}, {"type": "node", "id": 5325306039, "lat": 36.7891254, "lon": 138.3561733}, {"type": "node", "id": 5325306040, "lat": 36.7892267, "lon": 138.3561469}, {"type": "node", "id": 5327227083, "lat": 36.7476107, "lon": 138.3494505}, {"type": "node", "id": 5327227084, "lat": 36.7466245, "lon": 138.3495867}, {"type": "node", "id": 5327227086, "lat": 36.7465626, "lon": 138.3489859}, {"type": "node", "id": 5327227087, "lat": 36.7455927, "lon": 138.3491275}, {"type": "node", "id": 5327227088, "lat": 36.7455066, "lon": 138.3487528}, {"type": "node", "id": 5327227089, "lat": 36.7466354, "lon": 138.3485885}, {"type": "node", "id": 5327227090, "lat": 36.7465748, "lon": 138.347962}, {"type": "node", "id": 5327227091, "lat": 36.7474851, "lon": 138.3478232}, {"type": "node", "id": 5327227092, "lat": 36.7484458, "lon": 138.3476585}, {"type": "node", "id": 5333286032, "lat": 36.8266757, "lon": 138.3500312}, {"type": "node", "id": 5333293056, "lat": 36.8265879, "lon": 138.3499598}, {"type": "node", "id": 5333293057, "lat": 36.8263994, "lon": 138.3498874}, {"type": "node", "id": 5333310621, "lat": 36.8252219, "lon": 138.3495722}, {"type": "node", "id": 5333310622, "lat": 36.8249925, "lon": 138.3501019}, {"type": "node", "id": 5333310623, "lat": 36.8248526, "lon": 138.3504282}, {"type": "node", "id": 5333310624, "lat": 36.8248129, "lon": 138.3506501}, {"type": "node", "id": 5333310625, "lat": 36.8250298, "lon": 138.3507531}, {"type": "node", "id": 5333310626, "lat": 36.825306, "lon": 138.3509216}, {"type": "node", "id": 5333310627, "lat": 36.825685, "lon": 138.351066}, {"type": "node", "id": 5333310628, "lat": 36.8260752, "lon": 138.3511633}, {"type": "node", "id": 5333310629, "lat": 36.8263954, "lon": 138.3512444}, {"type": "node", "id": 5333357849, "lat": 36.8284314, "lon": 138.3501992}, {"type": "node", "id": 5333357850, "lat": 36.828449, "lon": 138.350574}, {"type": "node", "id": 5333357851, "lat": 36.8278073, "lon": 138.3508389}, {"type": "node", "id": 5333357852, "lat": 36.8277293, "lon": 138.3506659}, {"type": "node", "id": 5333357853, "lat": 36.8276656, "lon": 138.3506234}, {"type": "node", "id": 5333357854, "lat": 36.8276414, "lon": 138.3505204}, {"type": "node", "id": 5333357855, "lat": 36.8276403, "lon": 138.3504655}, {"type": "node", "id": 5333357856, "lat": 36.8277403, "lon": 138.3504257}, {"type": "node", "id": 5333357857, "lat": 36.8277469, "lon": 138.3502541}, {"type": "node", "id": 5333357858, "lat": 36.8279733, "lon": 138.3502322}, {"type": "node", "id": 5420152385, "lat": 36.7431119, "lon": 138.351565}, {"type": "node", "id": 5420152386, "lat": 36.7431593, "lon": 138.3515836}, {"type": "node", "id": 5569420721, "lat": 36.8115939, "lon": 138.7841243, "tags": {"addr:housenumber": "483", "addr:postcode": "949-6212", "addr:street": "\u65b0\u6f5f\u770c\u5357\u9b5a\u6cbc\u5e02\u6e6f\u6ca2\u753a\u5927\u5b57\u4e09\u56fd", "amenity": "school", "isced:level": "1", "name": "\u6e6f\u6ca2\u753a\u7acb\u4e09\u56fd\u5c0f\u5b66\u6821", "name:en": "Mikuni International College", "name:ja": "\u307f\u304f\u306b\u56fd\u969b\u5b66\u5712"}}, {"type": "node", "id": 5650689013, "lat": 36.6771446, "lon": 138.2592863}, {"type": "node", "id": 5650689014, "lat": 36.6769553, "lon": 138.2591575}, {"type": "node", "id": 5650689015, "lat": 36.6767261, "lon": 138.2588182}, {"type": "node", "id": 5692083860, "lat": 36.6498866, "lon": 138.3094516}, {"type": "node", "id": 5692083861, "lat": 36.6499619, "lon": 138.3089688}, {"type": "node", "id": 5692083862, "lat": 36.6500028, "lon": 138.3088803}, {"type": "node", "id": 5692083863, "lat": 36.650048, "lon": 138.3087623}, {"type": "node", "id": 5777942958, "lat": 36.6980645, "lon": 138.313054, "tags": {"amenity": "library", "name": "\u5c0f\u5e03\u65bd\u753a\u56f3\u66f8\u9928\u307e\u3061\u3068\u3057\u3087\u30c6\u30e9\u30bd", "source": "bing;local knowledge;gps"}}, {"type": "node", "id": 5778174897, "lat": 36.6610182, "lon": 138.3047734}, {"type": "node", "id": 5778174898, "lat": 36.6603678, "lon": 138.3045229}, {"type": "node", "id": 5778174899, "lat": 36.6596592, "lon": 138.3039494}, {"type": "node", "id": 5778174900, "lat": 36.6592362, "lon": 138.3047338}, {"type": "node", "id": 5778174901, "lat": 36.6589824, "lon": 138.3054853}, {"type": "node", "id": 5778174902, "lat": 36.6587973, "lon": 138.3060521}, {"type": "node", "id": 5778174903, "lat": 36.6596751, "lon": 138.3068168}, {"type": "node", "id": 5778174905, "lat": 36.6607909, "lon": 138.3078036}, {"type": "node", "id": 5778174906, "lat": 36.661819, "lon": 138.3081819}, {"type": "node", "id": 5778174907, "lat": 36.6621973, "lon": 138.3065399}, {"type": "node", "id": 5778174908, "lat": 36.6620598, "lon": 138.3064279}, {"type": "node", "id": 5778174909, "lat": 36.6623464, "lon": 138.30533}, {"type": "node", "id": 5797708153, "lat": 36.6481036, "lon": 138.3114331}, {"type": "node", "id": 5797708154, "lat": 36.6479438, "lon": 138.3113524}, {"type": "node", "id": 5797708162, "lat": 36.6480142, "lon": 138.3120436}, {"type": "node", "id": 5797803982, "lat": 36.6519232, "lon": 138.3117594, "tags": {"amenity": "kindergarten", "name": "\u4e0a\u9ad8\u4e95\u4fdd\u80b2\u5712"}}, {"type": "node", "id": 5797817772, "lat": 36.6538728, "lon": 138.3172343}, {"type": "node", "id": 5797817773, "lat": 36.6537786, "lon": 138.3162687}, {"type": "node", "id": 5797817774, "lat": 36.65309, "lon": 138.3163402}, {"type": "node", "id": 5797817775, "lat": 36.6530367, "lon": 138.3162891}, {"type": "node", "id": 5797817776, "lat": 36.6529711, "lon": 138.3159468}, {"type": "node", "id": 5797817777, "lat": 36.6526145, "lon": 138.3175357}, {"type": "node", "id": 5797817778, "lat": 36.6528974, "lon": 138.3174846}, {"type": "node", "id": 5797817779, "lat": 36.6533073, "lon": 138.3173875}, {"type": "node", "id": 5797817780, "lat": 36.6537171, "lon": 138.3173007}, {"type": "node", "id": 5797817787, "lat": 36.6529485, "lon": 138.3181413}, {"type": "node", "id": 5797817788, "lat": 36.6526677, "lon": 138.318878}, {"type": "node", "id": 5800032176, "lat": 36.6603557, "lon": 138.2915872}, {"type": "node", "id": 5800032177, "lat": 36.6601467, "lon": 138.2915106}, {"type": "node", "id": 5800032178, "lat": 36.6601549, "lon": 138.2913574}, {"type": "node", "id": 5800032179, "lat": 36.6593557, "lon": 138.2912552}, {"type": "node", "id": 5800032180, "lat": 36.6591426, "lon": 138.2925886}, {"type": "node", "id": 5800032181, "lat": 36.6596795, "lon": 138.2927726}, {"type": "node", "id": 5800032182, "lat": 36.6596672, "lon": 138.2929463}, {"type": "node", "id": 5800032183, "lat": 36.6598025, "lon": 138.2930076}, {"type": "node", "id": 5800032184, "lat": 36.6597697, "lon": 138.2933601}, {"type": "node", "id": 5800032185, "lat": 36.6599869, "lon": 138.2934061}, {"type": "node", "id": 5800032186, "lat": 36.6601344, "lon": 138.292747}, {"type": "node", "id": 5800032187, "lat": 36.6602697, "lon": 138.2920931}, {"type": "node", "id": 5802953731, "lat": 36.5878645, "lon": 138.2649284}, {"type": "node", "id": 5802953732, "lat": 36.5873389, "lon": 138.2646595}, {"type": "node", "id": 5802953733, "lat": 36.587239, "lon": 138.2648783}, {"type": "node", "id": 5802953734, "lat": 36.5871048, "lon": 138.2651736}, {"type": "node", "id": 5802953735, "lat": 36.5869362, "lon": 138.2651125}, {"type": "node", "id": 5802953736, "lat": 36.5866355, "lon": 138.265748}, {"type": "node", "id": 5802953737, "lat": 36.5865371, "lon": 138.2656954}, {"type": "node", "id": 5802953738, "lat": 36.5863702, "lon": 138.2662095}, {"type": "node", "id": 5802953739, "lat": 36.5871539, "lon": 138.26672}, {"type": "node", "id": 5802953740, "lat": 36.5874388, "lon": 138.2660838}, {"type": "node", "id": 5802953741, "lat": 36.5875731, "lon": 138.2657878}, {"type": "node", "id": 5802953742, "lat": 36.5877321, "lon": 138.265407}, {"type": "node", "id": 5802953743, "lat": 36.5877709, "lon": 138.2651708}, {"type": "node", "id": 5864575151, "lat": 36.6225424, "lon": 138.2604064}, {"type": "node", "id": 5864575152, "lat": 36.6223342, "lon": 138.2604105}, {"type": "node", "id": 5864575153, "lat": 36.6219892, "lon": 138.2604178}, {"type": "node", "id": 5864575154, "lat": 36.621761, "lon": 138.2604782}, {"type": "node", "id": 5864575155, "lat": 36.6214644, "lon": 138.2605721}, {"type": "node", "id": 5864575156, "lat": 36.6215527, "lon": 138.2606545}, {"type": "node", "id": 5864575157, "lat": 36.6216453, "lon": 138.2611078}, {"type": "node", "id": 5864575158, "lat": 36.6217529, "lon": 138.2614994}, {"type": "node", "id": 5864575159, "lat": 36.621938, "lon": 138.2618749}, {"type": "node", "id": 5864575160, "lat": 36.6220155, "lon": 138.2620788}, {"type": "node", "id": 5864575161, "lat": 36.6220349, "lon": 138.2624114}, {"type": "node", "id": 5864575162, "lat": 36.621994, "lon": 138.2625616}, {"type": "node", "id": 5864575163, "lat": 36.6219596, "lon": 138.2626715}, {"type": "node", "id": 5864575164, "lat": 36.6219897, "lon": 138.2628727}, {"type": "node", "id": 5864575166, "lat": 36.6220962, "lon": 138.2630511}, {"type": "node", "id": 5864575167, "lat": 36.6222717, "lon": 138.2629237}, {"type": "node", "id": 5864575168, "lat": 36.6223363, "lon": 138.2628754}, {"type": "node", "id": 5864575169, "lat": 36.6224439, "lon": 138.2628566}, {"type": "node", "id": 5864575170, "lat": 36.6225903, "lon": 138.2628137}, {"type": "node", "id": 5864575171, "lat": 36.6225731, "lon": 138.2624328}, {"type": "node", "id": 5864575172, "lat": 36.6225516, "lon": 138.2617006}, {"type": "node", "id": 5864575173, "lat": 36.6225516, "lon": 138.2613653}, {"type": "node", "id": 5864575174, "lat": 36.6225429, "lon": 138.2607967}, {"type": "node", "id": 5871449375, "lat": 36.6767563, "lon": 138.258947}, {"type": "node", "id": 5880706815, "lat": 36.4394573, "lon": 138.7750952}, {"type": "node", "id": 5880706816, "lat": 36.4388507, "lon": 138.7753667}, {"type": "node", "id": 5880706817, "lat": 36.4385096, "lon": 138.7748348}, {"type": "node", "id": 5880706818, "lat": 36.4385133, "lon": 138.77469}, {"type": "node", "id": 5880706819, "lat": 36.4385453, "lon": 138.77462}, {"type": "node", "id": 5880706820, "lat": 36.4388045, "lon": 138.774272}, {"type": "node", "id": 5880706821, "lat": 36.4388383, "lon": 138.7742791}, {"type": "node", "id": 5880706822, "lat": 36.439075, "lon": 138.774648}, {"type": "node", "id": 5880706823, "lat": 36.4391464, "lon": 138.7747064}, {"type": "node", "id": 5880706824, "lat": 36.4391933, "lon": 138.7747157}, {"type": "node", "id": 5917198561, "lat": 36.6815721, "lon": 138.2691813, "tags": {"amenity": "social_facility", "name": "JA\u7279\u5225\u990a\u8b77\u8001\u4eba\u30db\u30fc\u30e0 \u308a\u3093\u3054\u306e\u90f7", "operator": "JA", "social_facility": "group_home", "social_facility:for": "senior"}}, {"type": "node", "id": 5930615782, "lat": 36.6978326, "lon": 138.3150212}, {"type": "node", "id": 5930615783, "lat": 36.6979702, "lon": 138.3141897}, {"type": "node", "id": 5930615784, "lat": 36.698024, "lon": 138.3139644}, {"type": "node", "id": 5930616085, "lat": 36.6981036, "lon": 138.3138839}, {"type": "node", "id": 5930616086, "lat": 36.698196, "lon": 138.3137445}, {"type": "node", "id": 5930616087, "lat": 36.6982036, "lon": 138.3136063}, {"type": "node", "id": 5930616088, "lat": 36.6982423, "lon": 138.3133582}, {"type": "node", "id": 5930616089, "lat": 36.6982628, "lon": 138.3132684}, {"type": "node", "id": 5930616090, "lat": 36.6980691, "lon": 138.3131946}, {"type": "node", "id": 5930616091, "lat": 36.6979982, "lon": 138.313318}, {"type": "node", "id": 5930616092, "lat": 36.6979079, "lon": 138.3133931}, {"type": "node", "id": 5930616093, "lat": 36.6978455, "lon": 138.3134011}, {"type": "node", "id": 5930616094, "lat": 36.6978569, "lon": 138.312676}, {"type": "node", "id": 5930616095, "lat": 36.6971401, "lon": 138.3129505}, {"type": "node", "id": 5930616096, "lat": 36.6969917, "lon": 138.313833}, {"type": "node", "id": 5930616097, "lat": 36.6967057, "lon": 138.3138571}, {"type": "node", "id": 5930616098, "lat": 36.6966777, "lon": 138.3140154}, {"type": "node", "id": 5930616099, "lat": 36.6966487, "lon": 138.3145357}, {"type": "node", "id": 5930616100, "lat": 36.6966497, "lon": 138.3147838}, {"type": "node", "id": 5930616101, "lat": 36.696768, "lon": 138.3147905}, {"type": "node", "id": 5930616102, "lat": 36.6967605, "lon": 138.3150386}, {"type": "node", "id": 5930616104, "lat": 36.6973903, "lon": 138.319281}, {"type": "node", "id": 5930616105, "lat": 36.6970707, "lon": 138.3195219}, {"type": "node", "id": 5930616108, "lat": 36.6969039, "lon": 138.3191894}, {"type": "node", "id": 5930616115, "lat": 36.6967628, "lon": 138.3218878}, {"type": "node", "id": 5930616117, "lat": 36.6973555, "lon": 138.3218774}, {"type": "node", "id": 5930616118, "lat": 36.697512, "lon": 138.3219117}, {"type": "node", "id": 5930616120, "lat": 36.6976051, "lon": 138.3212504}, {"type": "node", "id": 5930616121, "lat": 36.697824, "lon": 138.321199}, {"type": "node", "id": 5930616122, "lat": 36.6976072, "lon": 138.3204589}, {"type": "node", "id": 5930616123, "lat": 36.6975513, "lon": 138.3204473}, {"type": "node", "id": 6072634144, "lat": 36.5217963, "lon": 138.3483477}, {"type": "node", "id": 6072634145, "lat": 36.5205095, "lon": 138.3492905}, {"type": "node", "id": 6072634146, "lat": 36.5191364, "lon": 138.3504707}, {"type": "node", "id": 6072634147, "lat": 36.5181513, "lon": 138.3512807}, {"type": "node", "id": 6072634148, "lat": 36.5189488, "lon": 138.354097}, {"type": "node", "id": 6072634149, "lat": 36.5198628, "lon": 138.355009}, {"type": "node", "id": 6072634150, "lat": 36.5205569, "lon": 138.353405}, {"type": "node", "id": 6072634151, "lat": 36.5217187, "lon": 138.3532226}, {"type": "node", "id": 6072634152, "lat": 36.52512, "lon": 138.3506289}, {"type": "node", "id": 6072634153, "lat": 36.5266719, "lon": 138.3494313}, {"type": "node", "id": 6072634154, "lat": 36.5266622, "lon": 138.3493817}, {"type": "node", "id": 6072634155, "lat": 36.5251653, "lon": 138.3465292}, {"type": "node", "id": 6072634156, "lat": 36.525119, "lon": 138.3464366}, {"type": "node", "id": 6072634157, "lat": 36.5248431, "lon": 138.3459967}, {"type": "node", "id": 6072634158, "lat": 36.5248, "lon": 138.3460101}, {"type": "node", "id": 6114407479, "lat": 36.6899509, "lon": 138.2655968}, {"type": "node", "id": 6114407480, "lat": 36.6899459, "lon": 138.2665326}, {"type": "node", "id": 6114407481, "lat": 36.6889255, "lon": 138.2664955}, {"type": "node", "id": 6114407482, "lat": 36.6888958, "lon": 138.2672028}, {"type": "node", "id": 6114407483, "lat": 36.6883731, "lon": 138.2672052}, {"type": "node", "id": 6114407484, "lat": 36.6883708, "lon": 138.2668693}, {"type": "node", "id": 6114412485, "lat": 36.6884203, "lon": 138.2668415}, {"type": "node", "id": 6114412486, "lat": 36.6884228, "lon": 138.2661898}, {"type": "node", "id": 6114412487, "lat": 36.6884525, "lon": 138.2660076}, {"type": "node", "id": 6114412488, "lat": 36.6884896, "lon": 138.265464}, {"type": "node", "id": 6114412489, "lat": 36.6889032, "lon": 138.2654732}, {"type": "node", "id": 6114412490, "lat": 36.6891484, "lon": 138.2655288}, {"type": "node", "id": 6114417234, "lat": 36.7081848, "lon": 138.263808}, {"type": "node", "id": 6114417235, "lat": 36.7083439, "lon": 138.263167}, {"type": "node", "id": 6114417236, "lat": 36.7086084, "lon": 138.2630919}, {"type": "node", "id": 6114417237, "lat": 36.7087352, "lon": 138.2629873}, {"type": "node", "id": 6114417238, "lat": 36.7104425, "lon": 138.2630382}, {"type": "node", "id": 6114417239, "lat": 36.7105457, "lon": 138.263175}, {"type": "node", "id": 6114417240, "lat": 36.7104296, "lon": 138.263521}, {"type": "node", "id": 6114417241, "lat": 36.7100555, "lon": 138.2634084}, {"type": "node", "id": 6114417242, "lat": 36.7100834, "lon": 138.264256}, {"type": "node", "id": 6114417243, "lat": 36.7098125, "lon": 138.2646207}, {"type": "node", "id": 6114420063, "lat": 36.7132006, "lon": 138.2825637}, {"type": "node", "id": 6114420064, "lat": 36.7130523, "lon": 138.2825529}, {"type": "node", "id": 6114420065, "lat": 36.7130421, "lon": 138.282157}, {"type": "node", "id": 6114420066, "lat": 36.7124062, "lon": 138.2821721}, {"type": "node", "id": 6114420067, "lat": 36.713183, "lon": 138.2838646}, {"type": "node", "id": 6114420068, "lat": 36.7134218, "lon": 138.2826973}, {"type": "node", "id": 6290467707, "lat": 36.4406372, "lon": 138.303192}, {"type": "node", "id": 6290467708, "lat": 36.4404502, "lon": 138.3024869}, {"type": "node", "id": 6290467709, "lat": 36.4401214, "lon": 138.3019429}, {"type": "node", "id": 6290467710, "lat": 36.4400207, "lon": 138.3019199}, {"type": "node", "id": 6290467711, "lat": 36.4393795, "lon": 138.3012659}, {"type": "node", "id": 6290467712, "lat": 36.4391699, "lon": 138.3013323}, {"type": "node", "id": 6290467713, "lat": 36.438728, "lon": 138.3016184}, {"type": "node", "id": 6290467714, "lat": 36.4391616, "lon": 138.3023618}, {"type": "node", "id": 6290467715, "lat": 36.4391863, "lon": 138.3025815}, {"type": "node", "id": 6290467716, "lat": 36.4392829, "lon": 138.3030209}, {"type": "node", "id": 6290467717, "lat": 36.4394987, "lon": 138.3033734}, {"type": "node", "id": 6290467718, "lat": 36.4395829, "lon": 138.3035752}, {"type": "node", "id": 6290467719, "lat": 36.4396528, "lon": 138.3037336}, {"type": "node", "id": 6290467720, "lat": 36.4400268, "lon": 138.3033836}, {"type": "node", "id": 6290467721, "lat": 36.4401666, "lon": 138.3033172}, {"type": "node", "id": 6290467722, "lat": 36.4402446, "lon": 138.3033862}, {"type": "node", "id": 6304925471, "lat": 36.6786743, "lon": 138.3633046}, {"type": "node", "id": 6304925472, "lat": 36.6763468, "lon": 138.3616592}, {"type": "node", "id": 6304925473, "lat": 36.6759698, "lon": 138.3626647}, {"type": "node", "id": 6304925474, "lat": 36.6771825, "lon": 138.3635623}, {"type": "node", "id": 6304925475, "lat": 36.6771717, "lon": 138.3636725}, {"type": "node", "id": 6304925476, "lat": 36.6769738, "lon": 138.3636711}, {"type": "node", "id": 6304925477, "lat": 36.6766863, "lon": 138.3642283}, {"type": "node", "id": 6304925478, "lat": 36.6775982, "lon": 138.3643847}, {"type": "node", "id": 6304925479, "lat": 36.6777698, "lon": 138.364447}, {"type": "node", "id": 6304925480, "lat": 36.6779267, "lon": 138.3642007}, {"type": "node", "id": 6304925481, "lat": 36.6780189, "lon": 138.3642517}, {"type": "node", "id": 6323136653, "lat": 36.7674773, "lon": 138.3693573}, {"type": "node", "id": 6355869161, "lat": 36.7455806, "lon": 138.4135606, "tags": {"amenity": "library", "name": "\u5c71\u30ce\u5185\u753a\u7acb\u87fb\u5ddd\u56f3\u66f8\u9928", "operator": "\u5c71\u30ce\u5185\u753a", "wikidata": "Q61887881", "wikipedia": "ja:\u5c71\u30ce\u5185\u753a\u7acb\u87fb\u5ddd\u56f3\u66f8\u9928"}}, {"type": "node", "id": 6710762480, "lat": 36.748887, "lon": 138.3738796}, {"type": "node", "id": 6710762482, "lat": 36.7494829, "lon": 138.3721173, "tags": {"entrance": "yes"}}, {"type": "node", "id": 6710763490, "lat": 36.7492137, "lon": 138.3729328, "tags": {"entrance": "yes"}}, {"type": "node", "id": 6710763491, "lat": 36.749309, "lon": 138.3741647, "tags": {"entrance": "main"}}, {"type": "node", "id": 6710763495, "lat": 36.749622, "lon": 138.371805}, {"type": "node", "id": 6710763496, "lat": 36.7501088, "lon": 138.3720195}, {"type": "node", "id": 6710763497, "lat": 36.7502807, "lon": 138.3718371}, {"type": "node", "id": 6710763498, "lat": 36.7505697, "lon": 138.3720075}, {"type": "node", "id": 6710763499, "lat": 36.7507513, "lon": 138.3720249}, {"type": "node", "id": 6710763500, "lat": 36.7506927, "lon": 138.3724887}, {"type": "node", "id": 6710763501, "lat": 36.7505055, "lon": 138.3730126}, {"type": "node", "id": 6710763502, "lat": 36.7505901, "lon": 138.3733179}, {"type": "node", "id": 6710763503, "lat": 36.7505063, "lon": 138.3736919}, {"type": "node", "id": 6710763504, "lat": 36.7504215, "lon": 138.3739782}, {"type": "node", "id": 6710763505, "lat": 36.750199, "lon": 138.3745348}, {"type": "node", "id": 6710763506, "lat": 36.7501123, "lon": 138.3744805}, {"type": "node", "id": 6710763507, "lat": 36.7500615, "lon": 138.3745904}, {"type": "node", "id": 6710763508, "lat": 36.7499992, "lon": 138.3745743}, {"type": "node", "id": 6710763509, "lat": 36.7488886, "lon": 138.3738475}, {"type": "node", "id": 6734613650, "lat": 36.6750832, "lon": 138.3566493}, {"type": "node", "id": 6734613651, "lat": 36.6749759, "lon": 138.3565916}, {"type": "node", "id": 6734613652, "lat": 36.6741696, "lon": 138.3567636}, {"type": "node", "id": 6734613653, "lat": 36.6740209, "lon": 138.357561}, {"type": "node", "id": 6734613654, "lat": 36.6742118, "lon": 138.3585728}, {"type": "node", "id": 6734613655, "lat": 36.6745615, "lon": 138.3587574}, {"type": "node", "id": 6734613656, "lat": 36.6747169, "lon": 138.3587522}, {"type": "node", "id": 6734613657, "lat": 36.674758, "lon": 138.3590653}, {"type": "node", "id": 6734613658, "lat": 36.6751568, "lon": 138.3589867}, {"type": "node", "id": 6734613659, "lat": 36.6752581, "lon": 138.3586936}, {"type": "node", "id": 6734613660, "lat": 36.6751924, "lon": 138.3579449}, {"type": "node", "id": 6734613661, "lat": 36.6751521, "lon": 138.3575187}, {"type": "node", "id": 6734613662, "lat": 36.6753005, "lon": 138.3575032}, {"type": "node", "id": 6734613663, "lat": 36.6753378, "lon": 138.3573549}, {"type": "node", "id": 6907569435, "lat": 36.6975611, "lon": 138.3126055}, {"type": "node", "id": 6907569436, "lat": 36.6973155, "lon": 138.3125906}, {"type": "node", "id": 6907569437, "lat": 36.6972428, "lon": 138.3129705}, {"type": "node", "id": 6907596194, "lat": 36.6978433, "lon": 138.3149566}, {"type": "node", "id": 6907596282, "lat": 36.6979516, "lon": 138.3143022}, {"type": "node", "id": 6910440165, "lat": 36.6445457, "lon": 138.2957713}, {"type": "node", "id": 6923639060, "lat": 36.7089406, "lon": 138.2629934}, {"type": "node", "id": 7022633940, "lat": 36.6535071, "lon": 138.3059991}, {"type": "node", "id": 7034440598, "lat": 36.6964295, "lon": 138.3192634}, {"type": "node", "id": 7034440599, "lat": 36.6965724, "lon": 138.3201121}, {"type": "node", "id": 7034440620, "lat": 36.6965339, "lon": 138.3198383}, {"type": "node", "id": 7222713382, "lat": 36.6171262, "lon": 138.589458}, {"type": "node", "id": 7222713383, "lat": 36.6158406, "lon": 138.5898971}, {"type": "node", "id": 7222713384, "lat": 36.6160266, "lon": 138.5906533}, {"type": "node", "id": 7222714185, "lat": 36.6162844, "lon": 138.5914623}, {"type": "node", "id": 7222714186, "lat": 36.6168358, "lon": 138.5913647}, {"type": "node", "id": 7222714187, "lat": 36.6168519, "lon": 138.5913201}, {"type": "node", "id": 7222714188, "lat": 36.6169137, "lon": 138.5913416}, {"type": "node", "id": 7222714189, "lat": 36.6169323, "lon": 138.5913155}, {"type": "node", "id": 7222714190, "lat": 36.6169347, "lon": 138.5912723}, {"type": "node", "id": 7222714191, "lat": 36.6175456, "lon": 138.5911136}, {"type": "node", "id": 7222714192, "lat": 36.6174578, "lon": 138.5907131}, {"type": "node", "id": 7222714193, "lat": 36.6174813, "lon": 138.5900861}, {"type": "node", "id": 7222714194, "lat": 36.6175325, "lon": 138.5899486}, {"type": "node", "id": 7222714223, "lat": 36.6207049, "lon": 138.5900426}, {"type": "node", "id": 7222714224, "lat": 36.620785, "lon": 138.5910243}, {"type": "node", "id": 7222714225, "lat": 36.6202875, "lon": 138.5912681}, {"type": "node", "id": 7222714226, "lat": 36.6188323, "lon": 138.5913057}, {"type": "node", "id": 7222714227, "lat": 36.6187289, "lon": 138.5900236}, {"type": "node", "id": 7222714228, "lat": 36.6188366, "lon": 138.5898841}, {"type": "node", "id": 7222714229, "lat": 36.6200077, "lon": 138.5897393}, {"type": "node", "id": 7222714230, "lat": 36.6200464, "lon": 138.5901523}, {"type": "node", "id": 7239025093, "lat": 36.6655214, "lon": 138.6115161}, {"type": "node", "id": 7239025094, "lat": 36.6647038, "lon": 138.6113337}, {"type": "node", "id": 7239025095, "lat": 36.6640497, "lon": 138.6117736}, {"type": "node", "id": 7239025096, "lat": 36.6636194, "lon": 138.6120418}, {"type": "node", "id": 7239025097, "lat": 36.6631977, "lon": 138.6119774}, {"type": "node", "id": 7239025098, "lat": 36.662776, "lon": 138.6119989}, {"type": "node", "id": 7239025099, "lat": 36.6625522, "lon": 138.6122456}, {"type": "node", "id": 7239025100, "lat": 36.663628, "lon": 138.613694}, {"type": "node", "id": 7400371732, "lat": 36.7402641, "lon": 138.3710065}, {"type": "node", "id": 7400371733, "lat": 36.7405428, "lon": 138.3700705}, {"type": "node", "id": 7400371736, "lat": 36.7425878, "lon": 138.3703106}, {"type": "node", "id": 7400371737, "lat": 36.7407277, "lon": 138.3712478}, {"type": "node", "id": 7400371738, "lat": 36.7421847, "lon": 138.3714221}, {"type": "node", "id": 7400371739, "lat": 36.7419977, "lon": 138.3713338}, {"type": "node", "id": 7400371740, "lat": 36.7415766, "lon": 138.3718203}, {"type": "node", "id": 7424342144, "lat": 36.743005, "lon": 138.3650643}, {"type": "node", "id": 7424342145, "lat": 36.74297, "lon": 138.3650656}, {"type": "node", "id": 7428617077, "lat": 36.7504474, "lon": 138.373267}, {"type": "node", "id": 7450895486, "lat": 36.5500953, "lon": 138.7074836}, {"type": "node", "id": 7450895487, "lat": 36.5500204, "lon": 138.7073529}, {"type": "node", "id": 7450895488, "lat": 36.5498853, "lon": 138.7074926}, {"type": "node", "id": 7450895489, "lat": 36.5497237, "lon": 138.7071915}, {"type": "node", "id": 7450895490, "lat": 36.5496124, "lon": 138.7073085}, {"type": "node", "id": 7450895491, "lat": 36.5498547, "lon": 138.7077402}, {"type": "node", "id": 7451978539, "lat": 36.7418489, "lon": 138.3773805}, {"type": "node", "id": 7451978540, "lat": 36.7421347, "lon": 138.3759065}, {"type": "node", "id": 7451978541, "lat": 36.7418441, "lon": 138.3758109}, {"type": "node", "id": 7451978542, "lat": 36.7416992, "lon": 138.3762722}, {"type": "node", "id": 7451978543, "lat": 36.7415971, "lon": 138.3762331}, {"type": "node", "id": 7451978544, "lat": 36.7415334, "lon": 138.3761077}, {"type": "node", "id": 7451978545, "lat": 36.7412924, "lon": 138.3760429}, {"type": "node", "id": 7451978548, "lat": 36.7410543, "lon": 138.3771448}, {"type": "node", "id": 7451978549, "lat": 36.7412608, "lon": 138.3771744}, {"type": "node", "id": 7451978550, "lat": 36.7412669, "lon": 138.377023}, {"type": "node", "id": 7451978551, "lat": 36.7416485, "lon": 138.3771293}, {"type": "node", "id": 7451978552, "lat": 36.7416139, "lon": 138.3773159}, {"type": "node", "id": 7472927188, "lat": 36.7416889, "lon": 138.3801862}, {"type": "node", "id": 7472927190, "lat": 36.7416083, "lon": 138.379689}, {"type": "node", "id": 7472927192, "lat": 36.7411575, "lon": 138.3798125}, {"type": "node", "id": 7472927193, "lat": 36.7412571, "lon": 138.3803239}, {"type": "node", "id": 7472927211, "lat": 36.7414127, "lon": 138.3797103}, {"type": "node", "id": 7477312476, "lat": 36.7763791, "lon": 138.3296838}, {"type": "node", "id": 7477312477, "lat": 36.776377, "lon": 138.3292294}, {"type": "node", "id": 7477312478, "lat": 36.7762011, "lon": 138.3292334}, {"type": "node", "id": 7477312479, "lat": 36.7762029, "lon": 138.3293515}, {"type": "node", "id": 7477312480, "lat": 36.7761673, "lon": 138.3293523}, {"type": "node", "id": 7477312481, "lat": 36.7761722, "lon": 138.3296884}, {"type": "node", "id": 7477312482, "lat": 36.7765615, "lon": 138.329547}, {"type": "node", "id": 7477312483, "lat": 36.7763771, "lon": 138.3294066}, {"type": "node", "id": 7477312484, "lat": 36.776379, "lon": 138.3293687}, {"type": "node", "id": 7477324389, "lat": 36.7888836, "lon": 138.3615191}, {"type": "node", "id": 7477324390, "lat": 36.7888043, "lon": 138.3611431}, {"type": "node", "id": 7477324391, "lat": 36.7886229, "lon": 138.3611807}, {"type": "node", "id": 7477324392, "lat": 36.7886265, "lon": 138.3612574}, {"type": "node", "id": 7477324393, "lat": 36.788585, "lon": 138.3613068}, {"type": "node", "id": 7477324394, "lat": 36.7883002, "lon": 138.3613218}, {"type": "node", "id": 7477324395, "lat": 36.7880582, "lon": 138.3614469}, {"type": "node", "id": 7477324396, "lat": 36.7880388, "lon": 138.3614801}, {"type": "node", "id": 7477324397, "lat": 36.7879565, "lon": 138.3614909}, {"type": "node", "id": 7477324398, "lat": 36.787908, "lon": 138.3615401}, {"type": "node", "id": 7477324399, "lat": 36.7876385, "lon": 138.3616922}, {"type": "node", "id": 7477324400, "lat": 36.7876628, "lon": 138.361845}, {"type": "node", "id": 7477324403, "lat": 36.7877099, "lon": 138.3622449}, {"type": "node", "id": 7477324404, "lat": 36.7881028, "lon": 138.3620162}, {"type": "node", "id": 7477324405, "lat": 36.7885627, "lon": 138.361886}, {"type": "node", "id": 7477324406, "lat": 36.7885534, "lon": 138.361783}, {"type": "node", "id": 7477324407, "lat": 36.7885787, "lon": 138.3617464}, {"type": "node", "id": 7477324408, "lat": 36.7886035, "lon": 138.3615975}, {"type": "node", "id": 7477334785, "lat": 36.7765574, "lon": 138.3292632}, {"type": "node", "id": 7477334786, "lat": 36.7764489, "lon": 138.3295496}, {"type": "node", "id": 7477334787, "lat": 36.7764468, "lon": 138.3294022}, {"type": "node", "id": 7477334788, "lat": 36.7764463, "lon": 138.3292657}, {"type": "node", "id": 7477334789, "lat": 36.7764478, "lon": 138.3293671}, {"type": "node", "id": 7477737418, "lat": 36.7485994, "lon": 138.3770096}, {"type": "node", "id": 7491564200, "lat": 36.746867, "lon": 138.3735201}, {"type": "node", "id": 7491564201, "lat": 36.746984, "lon": 138.3731981}, {"type": "node", "id": 7491564202, "lat": 36.7467068, "lon": 138.3730468}, {"type": "node", "id": 7491564203, "lat": 36.7465877, "lon": 138.373368}, {"type": "node", "id": 7491564204, "lat": 36.7441181, "lon": 138.3747819}, {"type": "node", "id": 7491564205, "lat": 36.7443675, "lon": 138.3740704}, {"type": "node", "id": 7491564206, "lat": 36.7440187, "lon": 138.373866}, {"type": "node", "id": 7491564207, "lat": 36.7438342, "lon": 138.3743782}, {"type": "node", "id": 7491564208, "lat": 36.74397, "lon": 138.3744614}, {"type": "node", "id": 7491564209, "lat": 36.7438935, "lon": 138.3746648}, {"type": "node", "id": 7505595162, "lat": 36.73967, "lon": 138.3573594}, {"type": "node", "id": 7505595163, "lat": 36.7380182, "lon": 138.3585546}, {"type": "node", "id": 7513677090, "lat": 36.737341, "lon": 138.3569666}, {"type": "node", "id": 7513677091, "lat": 36.7371694, "lon": 138.3565832}, {"type": "node", "id": 7517008977, "lat": 36.7474553, "lon": 138.3666731}, {"type": "node", "id": 7517008978, "lat": 36.7474506, "lon": 138.366466}, {"type": "node", "id": 7517008979, "lat": 36.7475069, "lon": 138.3664625}, {"type": "node", "id": 7521433561, "lat": 36.7357505, "lon": 138.3219843}, {"type": "node", "id": 7521433562, "lat": 36.7357376, "lon": 138.32159}, {"type": "node", "id": 7521433563, "lat": 36.7356538, "lon": 138.32159}, {"type": "node", "id": 7521433564, "lat": 36.7356409, "lon": 138.3213379}, {"type": "node", "id": 7521433565, "lat": 36.7355119, "lon": 138.3209141}, {"type": "node", "id": 7521433566, "lat": 36.7355205, "lon": 138.3207103}, {"type": "node", "id": 7521433567, "lat": 36.7351658, "lon": 138.3206807}, {"type": "node", "id": 7521433568, "lat": 36.7351185, "lon": 138.3208578}, {"type": "node", "id": 7521433569, "lat": 36.7350347, "lon": 138.3209677}, {"type": "node", "id": 7521433570, "lat": 36.734177, "lon": 138.3215042}, {"type": "node", "id": 7521433571, "lat": 36.7343984, "lon": 138.3222042}, {"type": "node", "id": 7521433572, "lat": 36.7345919, "lon": 138.3222042}, {"type": "node", "id": 7521433573, "lat": 36.7346177, "lon": 138.3223705}, {"type": "node", "id": 7521433574, "lat": 36.7348584, "lon": 138.3224027}, {"type": "node", "id": 7521433575, "lat": 36.7350884, "lon": 138.3223303}, {"type": "node", "id": 7521433576, "lat": 36.7352669, "lon": 138.3222686}, {"type": "node", "id": 7521433577, "lat": 36.7356882, "lon": 138.3220192}, {"type": "node", "id": 7521433578, "lat": 36.7361911, "lon": 138.3208792}, {"type": "node", "id": 7521433579, "lat": 36.735671, "lon": 138.3208256}, {"type": "node", "id": 7521433580, "lat": 36.736088, "lon": 138.3213433}, {"type": "node", "id": 7521437695, "lat": 36.7252417, "lon": 138.3684581}, {"type": "node", "id": 7521437696, "lat": 36.7248455, "lon": 138.367785}, {"type": "node", "id": 7521437697, "lat": 36.7243402, "lon": 138.3682567}, {"type": "node", "id": 7521437698, "lat": 36.7245591, "lon": 138.3686326},