{"version": 0.6, "generator": "Overpass API 0.7.62.8 e802775f", "osm3s": {"timestamp_osm_base": "2025-09-18T11:33:22Z", "copyright": "The data included in this document is from www.openstreetmap.org. The data is made available under ODbL."}, "elements": [{"type": "node", "id": 2277281681, "lat": 14.5007451, "lon": -90.9540637, "tags": {"amenity": "hospital", "name": "Centro de Salud"}}, {"type": "node", "id": 10555376265, "lat": 14.5534691, "lon": -90.9345319}, {"type": "node", "id": 10555376266, "lat": 14.5534585, "lon": -90.934702}, {"type": "node", "id": 10555376267, "lat": 14.5536004, "lon": -90.9346963}, {"type": "node", "id": 10555376268, "lat": 14.553608, "lon": -90.9345449}, {"type": "node", "id": 13040525001, "lat": 14.4838446, "lon": -90.8045267, "tags": {"addr:city": "San Juan Alotenango", "addr:state": "Sacatep\u00e9quez", "amenity": "fire_station", "name": "55 Compa\u00f1\u00eda de Bomberos Voluntarios"}}, {"type": "way", "id": 1132047661, "nodes": [10555376267, 10555376268, 10555376265, 10555376266, 10555376267], "tags": {"amenity": "fire_station", "name": "Bomberos Municipales Acatenango (ASONBOMD E-40)"}}]}