{"version": 0.6, "generator": "Overpass API 0.7.62.8 e802775f", "osm3s": {"timestamp_osm_base": "2025-09-18T11:34:22Z", "copyright": "The data included in this document is from www.openstreetmap.org. The data is made available under ODbL."}, "elements": [{"type": "node", "id": 2408621298, "lat": -0.3392224, "lon": 100.3828096, "tags": {"amenity": "dentist", "name": "Dokter gigi Arnetty", "opening_hours": "Mo - Fr 16:00 - 20:00"}}, {"type": "node", "id": 2408621303, "lat": -0.4474132, "lon": 100.4004437}, {"type": "node", "id": 3376718402, "lat": -0.3151316, "lon": 100.4386523}, {"type": "node", "id": 3376718403, "lat": -0.315286, "lon": 100.4387295}, {"type": "node", "id": 3376718404, "lat": -0.3152007, "lon": 100.4388596}, {"type": "node", "id": 3376718405, "lat": -0.3150584, "lon": 100.4387539}, {"type": "node", "id": 5753626322, "lat": -0.3149479, "lon": 100.386955, "tags": {"amenity": "bank", "name:en": "BNI"}}, {"type": "node", "id": 6375188073, "lat": -0.3760219, "lon": 100.3936269}, {"type": "node", "id": 6432727141, "lat": -0.4473588, "lon": 100.4007531}, {"type": "node", "id": 6432727142, "lat": -0.4477992, "lon": 100.4007324}, {"type": "node", "id": 6432727143, "lat": -0.4477849, "lon": 100.4004263}, {"type": "node", "id": 6432727144, "lat": -0.4473444, "lon": 100.4004469}, {"type": "node", "id": 6432758109, "lat": -0.3762313, "lon": 100.393769}, {"type": "node", "id": 6432758110, "lat": -0.3764043, "lon": 100.3933023}, {"type": "node", "id": 6432758111, "lat": -0.3765264, "lon": 100.3930717}, {"type": "node", "id": 6432758112, "lat": -0.3761294, "lon": 100.3928678}, {"type": "node", "id": 6432758113, "lat": -0.3760208, "lon": 100.3929604}, {"type": "node", "id": 6432758114, "lat": -0.3759229, "lon": 100.3931508}, {"type": "node", "id": 6432758115, "lat": -0.3759417, "lon": 100.3932299}, {"type": "node", "id": 6432758116, "lat": -0.3758384, "lon": 100.3933895}, {"type": "node", "id": 6432758117, "lat": -0.3758035, "lon": 100.393423}, {"type": "node", "id": 6432758118, "lat": -0.3757311, "lon": 100.3934499}, {"type": "node", "id": 10648564262, "lat": -0.3220252, "lon": 100.5268996, "tags": {"amenity": "fuel", "fuel:pertamax": "yes"}}, {"type": "node", "id": 10648564263, "lat": -0.3644797, "lon": 100.5528712, "tags": {"amenity": "fuel", "fuel:pertamax": "yes"}}, {"type": "node", "id": 10648564264, "lat": -0.3959582, "lon": 100.5599653, "tags": {"amenity": "fuel", "fuel:pertamax": "yes"}}, {"type": "node", "id": 11729491011, "lat": -0.4473496, "lon": 100.4005574}, {"type": "node", "id": 12393840181, "lat": -0.456704, "lon": 100.398582, "tags": {"addr:district": "Kota Padang Panjang", "addr:province": "Sumatera Barat", "addr:street": "Komplek Kompi Markas Secata B Kota Padang Panjang", "addr:subdistrict": "Padang Panjang Barat", "addr:village": "Balai balai", "amenity": "social_facility", "email": "padang_panjang@pmi.or.id", "name": "KSR PMI Kota Padang Panjang", "operator": "Palang Merah Indonesia", "operator:short": "PMI", "phone": "081276002490", "social_facility": "ksr_city_office"}}, {"type": "node", "id": 12393840182, "lat": -0.456705, "lon": 100.398556, "tags": {"addr:district": "Kota Padang Panjang", "addr:province": "Sumatera Barat", "addr:street": "Komplek Kompi Markas Secata B Kota Padang Panjang", "addr:subdistrict": "Padang Panjang Barat", "addr:village": "Balai balai", "amenity": "social_facility", "email": "padang_panjang@pmi.or.id", "name": "POSKO PMI Kota Padang Panjang", "operator": "Palang Merah Indonesia", "operator:short": "PMI", "phone": "081276002490", "social_facility": "command_post"}}, {"type": "node", "id": 12393840183, "lat": -0.4567, "lon": 100.398567, "tags": {"addr:district": "Kota Padang Panjang", "addr:province": "Sumatera Barat", "addr:street": "Komplek Kompi Markas Secata B kota Padang Panjang", "addr:subdistrict": "Padang Panjang Barat", "addr:village": "Balai balai", "amenity": "social_facility", "email": "padang_panjang@pmi.or.id", "name": "PMI Kota Padang Panjang", "operator": "Palang Merah Indonesia", "operator:short": "PMI", "phone": "081276002490", "social_facility": "office"}}, {"type": "way", "id": 330678831, "nodes": [3376718402, 3376718403, 3376718404, 3376718405, 3376718402], "tags": {"amenity": "doctors", "building": "yes", "name": "Bidan Yenti"}}, {"type": "way", "id": 686301677, "nodes": [6432727144, 2408621303, 6432727143, 6432727142, 6432727141, 11729491011, 6432727144], "tags": {"amenity": "fuel", "brand": "Pertamina", "brand:wikidata": "Q1641044", "landuse": "retail", "name": "SPBU 14-271-528", "ref": "14.271.528"}}, {"type": "way", "id": 686305636, "nodes": [6432758118, 6432758117, 6432758116, 6432758115, 6432758114, 6432758113, 6432758112, 6432758111, 6432758110, 6432758109, 6375188073, 6432758118], "tags": {"amenity": "fuel", "brand": "Pertamina", "brand:wikidata": "Q1641044", "landuse": "retail", "loc_name": "SPBU Batagak", "name": "SPBU Sungai Pua", "ref": "14-264-568"}}]}