{"version": 0.6, "generator": "Overpass API 0.7.62.8 e802775f", "osm3s": {"timestamp_osm_base": "2025-09-30T10:57:15Z", "copyright": "The data included in this document is from www.openstreetmap.org. The data is made available under ODbL."}, "elements": [{"type": "node", "id": 820986768, "lat": -0.3110902, "lon": 100.3724663, "tags": {"amenity": "fuel"}}, {"type": "node", "id": 2408621298, "lat": -0.3392224, "lon": 100.3828096, "tags": {"amenity": "dentist", "name": "Dokter gigi Arnetty", "opening_hours": "Mo - Fr 16:00 - 20:00"}}, {"type": "node", "id": 3376718402, "lat": -0.3151316, "lon": 100.4386523}, {"type": "node", "id": 3376718403, "lat": -0.315286, "lon": 100.4387295}, {"type": "node", "id": 3376718404, "lat": -0.3152007, "lon": 100.4388596}, {"type": "node", "id": 3376718405, "lat": -0.3150584, "lon": 100.4387539}, {"type": "node", "id": 4781214107, "lat": -0.3048843, "lon": 100.3690173, "tags": {"amenity": "bank", "atm": "yes", "brand": "BRI", "brand:wikidata": "Q623042", "name": "BRI", "official_name": "Bank Rakyat Indonesia"}}, {"type": "node", "id": 4781253992, "lat": -0.3035539, "lon": 100.3691971, "tags": {"amenity": "bank", "name": "Bank BCA"}}, {"type": "node", "id": 4781258100, "lat": -0.305194, "lon": 100.3681931, "tags": {"amenity": "bank", "name": "Bank BTN"}}, {"type": "node", "id": 4781259309, "lat": -0.3062937, "lon": 100.3702208, "tags": {"amenity": "bank", "name": "Bank BNI"}}, {"type": "node", "id": 5044945155, "lat": -0.3048317, "lon": 100.3677787, "tags": {"amenity": "bank", "atm": "yes", "level": "0", "name": "Bank Nagari"}}, {"type": "node", "id": 5046283378, "lat": -0.3021974, "lon": 100.3686743, "tags": {"amenity": "bank", "atm": "yes", "level": "0", "name": "Maybank"}}, {"type": "node", "id": 5046283381, "lat": -0.300597, "lon": 100.3673411, "tags": {"amenity": "shelter", "shelter_type": "picnic_shelter"}}, {"type": "node", "id": 5046283382, "lat": -0.2997617, "lon": 100.3686129, "tags": {"amenity": "bank", "atm": "yes", "level": "0", "name": "Mega"}}, {"type": "node", "id": 5046284067, "lat": -0.3049705, "lon": 100.3653689, "tags": {"amenity": "doctors"}}, {"type": "node", "id": 5753626322, "lat": -0.3149479, "lon": 100.386955, "tags": {"amenity": "bank", "name:en": "BNI"}}, {"type": "node", "id": 5757926621, "lat": -0.2958476, "lon": 100.3951244, "tags": {"amenity": "fuel", "name:en": "Pertamina"}}, {"type": "node", "id": 5761150822, "lat": -0.2856405, "lon": 100.4580589, "tags": {"amenity": "fuel", "name:en": "Pertamina"}}, {"type": "node", "id": 6375188073, "lat": -0.3760219, "lon": 100.3936269}, {"type": "node", "id": 6432758109, "lat": -0.3762313, "lon": 100.393769}, {"type": "node", "id": 6432758110, "lat": -0.3764043, "lon": 100.3933023}, {"type": "node", "id": 6432758111, "lat": -0.3765264, "lon": 100.3930717}, {"type": "node", "id": 6432758112, "lat": -0.3761294, "lon": 100.3928678}, {"type": "node", "id": 6432758113, "lat": -0.3760208, "lon": 100.3929604}, {"type": "node", "id": 6432758114, "lat": -0.3759229, "lon": 100.3931508}, {"type": "node", "id": 6432758115, "lat": -0.3759417, "lon": 100.3932299}, {"type": "node", "id": 6432758116, "lat": -0.3758384, "lon": 100.3933895}, {"type": "node", "id": 6432758117, "lat": -0.3758035, "lon": 100.393423}, {"type": "node", "id": 6432758118, "lat": -0.3757311, "lon": 100.3934499}, {"type": "node", "id": 9070476405, "lat": -0.2893164, "lon": 100.4284936}, {"type": "node", "id": 9070476406, "lat": -0.2894297, "lon": 100.4288791}, {"type": "node", "id": 9070476407, "lat": -0.2895479, "lon": 100.4288444}, {"type": "node", "id": 9070476408, "lat": -0.2894346, "lon": 100.4284588}, {"type": "node", "id": 11971362296, "lat": -0.3040521, "lon": 100.3657216, "tags": {"amenity": "doctors"}}, {"type": "node", "id": 12393840167, "lat": -0.3013633, "lon": 100.3651776, "tags": {"addr:district": "Kota Bukittinggi", "addr:province": "Sumatera Barat", "addr:street": "Jl. A. Rivai no. 17 a", "addr:subdistrict": "Guguak Panjang", "addr:village": "Kayu Kubu", "amenity": "social_facility", "email": "pmi.kotabukittinggi@gmail.com", "name": "Aula PMI Kota Bukittinggi", "operator": "Palang Merah Indonesia", "operator:short": "PMI", "phone": "0752627899", "social_facility": "hall"}}, {"type": "node", "id": 12393840168, "lat": -0.3013317, "lon": 100.365092, "tags": {"addr:district": "Kota Bukittinggi", "addr:province": "Sumatera Barat", "addr:street": "Jl. A. Rivai no. 17 a", "addr:subdistrict": "Guguak Panjang", "addr:village": "Kayu Kubu", "amenity": "social_facility", "email": "pmi.kotabukittinggi@gmail.com", "name": "POSKO PMI Kota Bukittinggi", "operator": "Palang Merah Indonesia", "operator:short": "PMI", "phone": "0752627899", "social_facility": "command_post"}}, {"type": "node", "id": 12393840169, "lat": -0.3014629, "lon": 100.3652708, "tags": {"addr:district": "Kota Bukittinggi", "addr:province": "Sumatera Barat", "addr:street": "Jl. A. Rivai no. 17 a", "addr:subdistrict": "Guguak Panjang", "addr:village": "Kayu Kubu", "amenity": "social_facility", "email": "pmi.kotabukittinggi@gmail.com", "name": "KSR PMI Kota Bukittinggi", "operator": "Palang Merah Indonesia", "operator:short": "PMI", "phone": "0752627899", "social_facility": "ksr_city_office"}}, {"type": "node", "id": 12393840173, "lat": -0.3014063, "lon": 100.3652033, "tags": {"addr:district": "Kota Bukittinggi", "addr:province": "Sumatera Barat", "addr:street": "Jln. A. Rivai no 17 A", "addr:subdistrict": "Guguak Panjang", "addr:village": "Kayu Kubu", "amenity": "social_facility", "email": "pmi.kotobukittinggi@gmail.com", "name": "PMI Kota Bukittinggi", "operator": "Palang Merah Indonesia", "operator:short": "PMI", "phone": "0752627899", "social_facility": "office"}}, {"type": "way", "id": 330678831, "nodes": [3376718402, 3376718403, 3376718404, 3376718405, 3376718402], "tags": {"amenity": "doctors", "building": "yes", "name": "Bidan Yenti"}}, {"type": "way", "id": 686305636, "nodes": [6432758118, 6432758117, 6432758116, 6432758115, 6432758114, 6432758113, 6432758112, 6432758111, 6432758110, 6432758109, 6375188073, 6432758118], "tags": {"amenity": "fuel", "brand": "Pertamina", "brand:wikidata": "Q1641044", "landuse": "retail", "loc_name": "SPBU Batagak", "name": "SPBU Sungai Pua", "ref": "14-264-568"}}, {"type": "way", "id": 980558161, "nodes": [9070476408, 9070476405, 9070476406, 9070476407, 9070476408], "tags": {"amenity": "fuel", "building": "yes", "fuel:Dexlite": "yes", "fuel:pertalite": "yes", "fuel:pertamax": "yes"}}]}