{"version": 0.6, "generator": "Overpass API 0.7.62.8 e802775f", "osm3s": {"timestamp_osm_base": "2025-10-16T10:44:46Z", "copyright": "The data included in this document is from www.openstreetmap.org. The data is made available under ODbL."}, "elements": [{"type": "node", "id": 5156597540, "lat": 12.921557, "lon": 124.1225631, "tags": {"amenity": "police", "name": "Gubat Police Assistance Center"}}, {"type": "node", "id": 9454694787, "lat": 12.9227043, "lon": 124.1203425}, {"type": "node", "id": 10870154793, "lat": 12.9217507, "lon": 124.1204753}, {"type": "node", "id": 10870154794, "lat": 12.9215486, "lon": 124.1195427}, {"type": "node", "id": 10870154795, "lat": 12.922531, "lon": 124.1194502}, {"type": "way", "id": 1168908582, "nodes": [10870154795, 10870154794, 10870154793, 9454694787, 10870154795], "tags": {"addr:postcode": "4710", "addr:street": "Bonifacio Street", "amenity": "hospital", "emergency": "yes", "government": "healthcare", "healthcare": "hospital", "name": "Gubat District Hospital", "old_name": "Salvador R. Encinas District Hospital", "opening_hours": "24/7"}}]}