{"version": 0.6, "generator": "Overpass API 0.7.62.8 e802775f", "osm3s": {"timestamp_osm_base": "2025-09-30T11:07:22Z", "copyright": "The data included in this document is from www.openstreetmap.org. The data is made available under ODbL."}, "elements": [{"type": "node", "id": 3161428234, "lat": 10.4007712, "lon": 123.2135899}, {"type": "node", "id": 3161428235, "lat": 10.4007751, "lon": 123.2132899}, {"type": "node", "id": 3161428239, "lat": 10.4008008, "lon": 123.2134548}, {"type": "node", "id": 3161428247, "lat": 10.4009545, "lon": 123.2137659}, {"type": "node", "id": 3161428253, "lat": 10.4010493, "lon": 123.2131555}, {"type": "node", "id": 3161428464, "lat": 10.4012702, "lon": 123.2131458}, {"type": "node", "id": 3161428470, "lat": 10.4013893, "lon": 123.2132548}, {"type": "node", "id": 3161428472, "lat": 10.4013913, "lon": 123.2133738}, {"type": "node", "id": 3884293054, "lat": 10.3841785, "lon": 123.2135209}, {"type": "node", "id": 3884293055, "lat": 10.3832768, "lon": 123.2138956}, {"type": "node", "id": 3884293056, "lat": 10.3829268, "lon": 123.2129062}, {"type": "node", "id": 3884294657, "lat": 10.3831204, "lon": 123.2128792}, {"type": "node", "id": 3884294658, "lat": 10.3833537, "lon": 123.2129439}, {"type": "node", "id": 3884303487, "lat": 10.3828291, "lon": 123.2277271, "tags": {"addr:city": "Canlaon", "addr:postcode": "6223", "amenity": "fire_station", "name": "Canlaon City Fire Station", "operator": "Bureau of Fire Protection", "operator:wikidata": "Q17027200"}}, {"type": "node", "id": 3933274252, "lat": 10.3818782, "lon": 123.2289883}, {"type": "node", "id": 3933274253, "lat": 10.3819018, "lon": 123.2290546}, {"type": "node", "id": 3933274254, "lat": 10.381827, "lon": 123.2290821}, {"type": "node", "id": 3933274255, "lat": 10.3818034, "lon": 123.2290158}, {"type": "node", "id": 6385364385, "lat": 10.3351383, "lon": 123.3263597, "tags": {"addr:city": "Vallehermoso", "addr:postcode": "6224", "addr:street": "M. Perdices Street", "amenity": "police", "name": "Vallehermoso Municipal Police Station", "opening_hours": "24/7", "operator": "Philippine National Police", "operator:short": "PNP", "operator:wikidata": "Q963772"}}, {"type": "node", "id": 6385364585, "lat": 10.33529, "lon": 123.3263581, "tags": {"amenity": "police", "name": "Bureau of Jail Management and Penology", "opening_hours": "24/7"}}, {"type": "node", "id": 6669502514, "lat": 10.3841356, "lon": 123.2138783, "tags": {"amenity": "fire_station", "name": "Canlaon Fire Station", "source": "data.gov.ph;Bureau of Fire Protection"}}, {"type": "node", "id": 7207015329, "lat": 10.3300079, "lon": 123.3263332}, {"type": "node", "id": 9951847639, "lat": 10.3301799, "lon": 123.3261055}, {"type": "node", "id": 9951847640, "lat": 10.3299845, "lon": 123.3261259}, {"type": "node", "id": 9951847641, "lat": 10.3302008, "lon": 123.3263038}, {"type": "way", "id": 310683911, "nodes": [3161428247, 3161428472, 3161428470, 3161428464, 3161428253, 3161428235, 3161428239, 3161428234, 3161428247], "tags": {"addr:place": "Lucap", "addr:village": "Mabigo", "amenity": "hospital", "name": "Canlaon District Hospital", "ref": "DOH000000000000223"}}, {"type": "way", "id": 385072233, "nodes": [3884293054, 3884293055, 3884293056, 3884294657, 3884294658, 3884293054], "tags": {"amenity": "police", "name": "Canlaon City Police Station", "operator": "Philippine National Police", "operator:short": "PNP", "operator:wikidata": "Q963772"}}, {"type": "way", "id": 390166751, "nodes": [3933274252, 3933274253, 3933274254, 3933274255, 3933274252], "tags": {"amenity": "police", "building": "yes", "name": "Police Auxiliary"}}, {"type": "way", "id": 1086109682, "nodes": [9951847639, 9951847641, 7207015329, 9951847640, 9951847639], "tags": {"addr:city": "Vallehermoso", "addr:postcode": "6224", "addr:street": "Dumaguete North Road", "amenity": "fire_station", "name": "Vallehermoso Municipal Fire Station", "operator": "Bureau of Fire Protection", "operator:wikidata": "Q17027200"}}]}