{"version": 0.6, "generator": "Overpass API 0.7.62.8 e802775f", "osm3s": {"timestamp_osm_base": "2025-09-30T10:57:15Z", "copyright": "The data included in this document is from www.openstreetmap.org. The data is made available under ODbL."}, "elements": [{"type": "node", "id": 3051467663, "lat": -0.2625154, "lon": 100.6003142, "tags": {"amenity": "fuel", "brand": "Pertamina", "name": "Pertamina", "operator": "Pertamina"}}, {"type": "node", "id": 4559501944, "lat": -0.1849919, "lon": 100.5981564, "tags": {"amenity": "bank", "atm": "yes", "name": "BRI cabang koto baru simalanggang"}}, {"type": "node", "id": 4559535473, "lat": -0.2345107, "lon": 100.6182923, "tags": {"amenity": "fuel", "name": "SPBU koto nan IV"}}, {"type": "node", "id": 4781226867, "lat": -0.2229743, "lon": 100.6352444, "tags": {"amenity": "bank", "name": "BCA"}}, {"type": "node", "id": 4781245323, "lat": -0.2276972, "lon": 100.63483, "tags": {"amenity": "bank", "atm": "no", "name": "BRI SYARIAH"}}, {"type": "node", "id": 7019691798, "lat": -0.2265334, "lon": 100.6284061, "tags": {"amenity": "fuel", "fuel:diesel": "yes", "fuel:octane_80": "yes", "fuel:octane_91": "yes", "name": "SPBU 14.262.539"}}, {"type": "node", "id": 9470368201, "lat": -0.1994447, "lon": 100.6016769}, {"type": "node", "id": 9470368202, "lat": -0.1994866, "lon": 100.6016942}, {"type": "node", "id": 9470368203, "lat": -0.1994277, "lon": 100.6018364}, {"type": "node", "id": 9470368204, "lat": -0.1993858, "lon": 100.6018191}, {"type": "node", "id": 10648564262, "lat": -0.3220252, "lon": 100.5268996, "tags": {"amenity": "fuel", "fuel:pertamax": "yes"}}, {"type": "node", "id": 10648564263, "lat": -0.3644797, "lon": 100.5528712, "tags": {"amenity": "fuel", "fuel:pertamax": "yes"}}, {"type": "node", "id": 10775011985, "lat": -0.2645031, "lon": 100.5668533}, {"type": "node", "id": 10775011986, "lat": -0.2650111, "lon": 100.5669728}, {"type": "node", "id": 10775011987, "lat": -0.2652083, "lon": 100.5669489}, {"type": "node", "id": 10775011988, "lat": -0.2651306, "lon": 100.566405}, {"type": "node", "id": 10775011989, "lat": -0.2646943, "lon": 100.566411}, {"type": "node", "id": 10775011990, "lat": -0.2646883, "lon": 100.5660763}, {"type": "node", "id": 10775011991, "lat": -0.2644911, "lon": 100.5660763}, {"type": "node", "id": 12393840147, "lat": -0.223019, "lon": 100.636981, "tags": {"addr:district": "Kota Payakumbuh", "addr:province": "Sumatera Barat", "addr:street": "Jln. Ade Irma Suryani- No:18- Labuah Baru- Kec. Payakumbuh Utara", "addr:subdistrict": "Payakumbuh Utara", "addr:village": "Labuah Baru", "amenity": "social_facility", "email": "kota_payakumbuh@pmi.or.id", "name": "KSR PMI Kota Payakumbuh", "operator": "Palang Merah Indonesia", "operator:short": "PMI", "phone": "085265312653", "social_facility": "ksr_city_office"}}, {"type": "node", "id": 12393840148, "lat": -0.223197, "lon": 100.637039, "tags": {"addr:district": "Kota Payakumbuh", "addr:province": "Sumatera Barat", "addr:street": "Jln. Ade Irma Suryani- No:18- Labuah Baru- Kec. Payakumbuh Utara", "addr:subdistrict": "Payakumbuh Utara", "addr:village": "Labuah Baru", "amenity": "social_facility", "email": "kota_payakumbuh@pmi.or.id", "name": "POSKO PMI Kota Payakumbuh", "operator": "Palang Merah Indonesia", "operator:short": "PMI", "phone": "085265312653", "social_facility": "command_post"}}, {"type": "node", "id": 12393840149, "lat": -0.223157, "lon": 100.637002, "tags": {"addr:district": "Kota Payakumbuh", "addr:province": "Sumatera Barat", "addr:street": "Jln. Ade Irma Suryani- No:18- Labuah Baru- Kec. Payakumbuh Utara", "addr:subdistrict": "Payakumbuh Utara", "addr:village": "Labuah Baru", "amenity": "social_facility", "email": "kota_payakumbuh@pmi.or.id", "name": "PMI Kota Payakumbuh", "operator": "Palang Merah Indonesia", "operator:short": "PMI", "phone": "085265312653", "social_facility": "office"}}, {"type": "node", "id": 12393840151, "lat": -0.169285, "lon": 100.6602403, "tags": {"addr:district": "Lima Puluh Kota", "addr:province": "Sumatera Barat", "addr:street": "Jln raya negara Tanjung Pati km 7 kec Harau kab Lima puluh kota prov Sumatra Barat", "addr:subdistrict": "Harau", "addr:village": "Koto tuo", "amenity": "social_facility", "email": "bprasetya241180@gmail.com", "name": "KSR PMI Kabupaten Lima Puluh Kota", "operator": "Palang Merah Indonesia", "operator:short": "PMI", "phone": "08126797107", "social_facility": "ksr_district_office"}}, {"type": "node", "id": 12393840152, "lat": -0.1692904, "lon": 100.6602477, "tags": {"addr:district": "Lima Puluh Kota", "addr:province": "Sumatera Barat", "addr:street": "Jln raya negara Tanjung Pati km 7 kec Harau kab Lima puluh kota PROV sumatera barat", "addr:subdistrict": "Harau", "addr:village": "Koto tuo", "amenity": "social_facility", "email": "bprasetya241180@gmail.com", "name": "POSKO PMI Kabupaten Lima Puluh Kota", "operator": "Palang Merah Indonesia", "operator:short": "PMI", "phone": "08126797107", "social_facility": "command_post"}}, {"type": "node", "id": 12393840179, "lat": -0.169283, "lon": 100.660253, "tags": {"addr:district": "Lima Puluh Kota", "addr:province": "Sumatera Barat", "addr:street": "Jln raya negara Tanjung Pati km 7 koto tuo kec Harau kab Lima puluh kota PROV sumatera barat", "addr:subdistrict": "Harau", "addr:village": "Koto tuo", "amenity": "social_facility", "email": "bprasetya241180@gmail.com", "name": "PMI Kabupaten Lima Puluh Kota", "operator": "Palang Merah Indonesia", "operator:short": "PMI", "phone": "08126797107", "social_facility": "office"}}, {"type": "way", "id": 1027243199, "nodes": [9470368201, 9470368202, 9470368203, 9470368204, 9470368201], "tags": {"amenity": "shelter", "building": "yes"}}, {"type": "way", "id": 1158638759, "nodes": [10775011985, 10775011986, 10775011987, 10775011988, 10775011989, 10775011990, 10775011991, 10775011985], "tags": {"amenity": "fuel", "brand": "Pertamina", "brand:wikidata": "Q1641044", "fuel:biogas": "yes", "fuel:gasoline": "yes", "fuel:petrol": "yes", "name": "SPBU 13.262.515 Koto Baru", "operator": "Private"}}]}