{"version": 0.6, "generator": "Overpass API 0.7.62.8 e802775f", "osm3s": {"timestamp_osm_base": "2025-09-30T10:57:15Z", "copyright": "The data included in this document is from www.openstreetmap.org. The data is made available under ODbL."}, "elements": [{"type": "node", "id": 1934657811, "lat": -0.4619693, "lon": 100.5790755, "tags": {"amenity": "fuel", "brand": "SPBU", "building": "yes", "name": "SPBU Simpang Kimbang", "opening_hours": "24/7"}}, {"type": "node", "id": 1943937664, "lat": -0.4742493, "lon": 100.6235057, "tags": {"amenity": "townhall", "name": "Kantor Bupati Tanah Datar"}}, {"type": "node", "id": 1969877868, "lat": -0.4738773, "lon": 100.6236978}, {"type": "node", "id": 1969877871, "lat": -0.4741384, "lon": 100.6239342}, {"type": "node", "id": 1969877873, "lat": -0.4742784, "lon": 100.6232721}, {"type": "node", "id": 1969877875, "lat": -0.4745356, "lon": 100.6234956}, {"type": "node", "id": 1980660370, "lat": -0.4644197, "lon": 100.5453075, "tags": {"amenity": "fuel", "brand": "SPBU Cubadag", "name": "SPBU Cubadag", "operator": "4"}}, {"type": "node", "id": 1980661457, "lat": -0.4744046, "lon": 100.6233733}, {"type": "node", "id": 1982593038, "lat": -0.4624166, "lon": 100.573743, "tags": {"amenity": "courthouse", "name": "Pengadilan Agama Batusangkar"}}, {"type": "node", "id": 1989177390, "lat": -0.4496297, "lon": 100.5881656, "tags": {"amenity": "fuel", "brand": "SPBU Parak Juar", "name": "SPBU parak juar", "operator": "8"}}, {"type": "node", "id": 1989189983, "lat": -0.4535577, "lon": 100.596003, "tags": {"amenity": "courthouse", "name": "Pengadilan Negeri Batusangkar"}}, {"type": "node", "id": 10648564264, "lat": -0.3959582, "lon": 100.5599653, "tags": {"amenity": "fuel", "fuel:pertamax": "yes"}}, {"type": "node", "id": 12393840115, "lat": -0.455593, "lon": 100.5952489, "tags": {"addr:district": "Tanah Datar", "addr:province": "Sumatera Barat", "addr:street": "JL. MT. Haryono No 01 Batusangkar", "addr:subdistrict": "Lima Kaum", "addr:village": "Baringin", "amenity": "social_facility", "email": "kab_tanahdatar@pmi.or.id", "name": "POSKO PMI Kabupaten Tanah Datar", "operator": "Palang Merah Indonesia", "operator:short": "PMI", "phone": "082216430724", "social_facility": "command_post"}}, {"type": "node", "id": 12393840116, "lat": -0.4555855, "lon": 100.5952495, "tags": {"addr:district": "Tanah Datar", "addr:province": "Sumatera Barat", "addr:street": "JL. MT. Haryono No 01 Batusangkar", "addr:subdistrict": "Lima Kaum", "addr:village": "Baringin", "amenity": "social_facility", "email": "kab_tanahdatar@pmi.or.id", "name": "KSR PMI Kabupaten Tanah Datar", "operator": "Palang Merah Indonesia", "operator:short": "PMI", "phone": "082216430724", "social_facility": "ksr_district_office"}}, {"type": "node", "id": 12393840165, "lat": -0.455585, "lon": 100.59547, "tags": {"addr:district": "Tanah Datar", "addr:province": "Sumatera Barat", "addr:street": "JL. MT. Haryono No 1 Batusangkar- Baringin 27213", "addr:subdistrict": "Lima Kaum", "addr:village": "Baringin", "amenity": "social_facility", "email": "kab_tanahdatar@pmi.or.id", "name": "PMI Kabupaten Tanah Datar", "operator": "Palang Merah Indonesia", "operator:short": "PMI", "phone": "082216430724", "social_facility": "office"}}, {"type": "way", "id": 186312754, "nodes": [1969877873, 1969877868, 1969877871, 1969877875, 1980661457, 1969877873], "tags": {"amenity": "townhall", "building": "yes"}}]}