{"version": 0.6, "generator": "Overpass API 0.7.62.8 e802775f", "osm3s": {"timestamp_osm_base": "2025-10-16T10:46:46Z", "copyright": "The data included in this document is from www.openstreetmap.org. The data is made available under ODbL."}, "elements": [{"type": "node", "id": 3433604757, "lat": 13.3256367, "lon": 123.4312231}, {"type": "node", "id": 3433604759, "lat": 13.3256556, "lon": 123.4311285}, {"type": "node", "id": 3433604766, "lat": 13.3257334, "lon": 123.4312435}, {"type": "node", "id": 3433604768, "lat": 13.3257523, "lon": 123.431149}, {"type": "node", "id": 3926355467, "lat": 13.299466, "lon": 123.4368467}, {"type": "node", "id": 3926355468, "lat": 13.2993756, "lon": 123.4368152}, {"type": "node", "id": 3926355469, "lat": 13.2993085, "lon": 123.437001}, {"type": "node", "id": 3926355470, "lat": 13.2994019, "lon": 123.437034}, {"type": "node", "id": 8115064999, "lat": 13.3257242, "lon": 123.4312416}, {"type": "node", "id": 10904453815, "lat": 13.4115257, "lon": 123.512416, "tags": {"amenity": "hospital", "name": "Buhi Community Hospital"}}, {"type": "node", "id": 11058978226, "lat": 13.4396148, "lon": 123.6840392}, {"type": "node", "id": 11058978227, "lat": 13.4393567, "lon": 123.6841323}, {"type": "node", "id": 11058978228, "lat": 13.4391688, "lon": 123.6836613}, {"type": "node", "id": 11058978229, "lat": 13.4390918, "lon": 123.6834209}, {"type": "node", "id": 11058978230, "lat": 13.439358, "lon": 123.6833278}, {"type": "node", "id": 11074490405, "lat": 13.2929018, "lon": 123.4845106, "tags": {"amenity": "police"}}, {"type": "way", "id": 336306692, "nodes": [3433604768, 3433604759, 3433604757, 8115064999, 3433604766, 3433604768], "tags": {"addr:city": "Libon", "addr:postcode": "4507", "addr:street": "Maharlika Highway", "amenity": "police", "building": "yes", "name": "Matacon PNP", "source": "Schadow1 Expeditions"}}, {"type": "way", "id": 389461183, "nodes": [3926355467, 3926355468, 3926355469, 3926355470, 3926355467], "tags": {"addr:place": "Zone \u2163", "amenity": "police", "building": "yes", "name": "Libon Police Station"}}, {"type": "way", "id": 1191170580, "nodes": [11058978230, 11058978229, 11058978228, 11058978227, 11058978226, 11058978230], "tags": {"amenity": "hospital", "beds": "20", "emergency": "yes", "name": "Tiwi Doctor's Hospital", "ref": "DOH000000000043266"}}]}