{"version": 0.6, "generator": "Overpass API 0.7.62.8 e802775f", "osm3s": {"timestamp_osm_base": "2025-09-30T11:06:23Z", "copyright": "The data included in this document is from www.openstreetmap.org. The data is made available under ODbL."}, "elements": [{"type": "node", "id": 2145147096, "lat": 1.7260732, "lon": 128.0060066, "tags": {"amenity": "courthouse"}}, {"type": "node", "id": 2145147111, "lat": 1.7508606, "lon": 127.9910192, "tags": {"amenity": "university"}}, {"type": "node", "id": 2149434163, "lat": 1.7226099, "lon": 128.0091957, "tags": {"amenity": "school"}}, {"type": "node", "id": 2149434173, "lat": 1.7250593, "lon": 128.0098424, "tags": {"amenity": "school"}}, {"type": "node", "id": 2149434180, "lat": 1.7300868, "lon": 128.0085277, "tags": {"amenity": "school"}}, {"type": "node", "id": 2149434188, "lat": 1.7320255, "lon": 128.005889, "tags": {"amenity": "school"}}, {"type": "node", "id": 2149434192, "lat": 1.7381486, "lon": 128.0058881, "tags": {"amenity": "school"}}, {"type": "node", "id": 3926231861, "lat": 1.7258287, "lon": 128.0045572, "tags": {"amenity": "school"}}, {"type": "node", "id": 6861252477, "lat": 1.7501608, "lon": 127.9212307}, {"type": "node", "id": 6861252478, "lat": 1.7502522, "lon": 127.9212472}, {"type": "node", "id": 6861252479, "lat": 1.7502379, "lon": 127.9213261}, {"type": "node", "id": 6861252480, "lat": 1.7501465, "lon": 127.9213096, "tags": {"amenity": "shelter", "name": "Remote", "shelter_type": "basic_hut"}}, {"type": "node", "id": 6861305796, "lat": 1.9601036, "lon": 127.9157585}, {"type": "node", "id": 6861305797, "lat": 1.9601313, "lon": 127.9157884}, {"type": "node", "id": 6861305798, "lat": 1.9600774, "lon": 127.9158384}, {"type": "node", "id": 6861305799, "lat": 1.9600497, "lon": 127.9158085, "tags": {"amenity": "shelter"}}, {"type": "node", "id": 7437820554, "lat": 1.734636, "lon": 127.9922488, "tags": {"amenity": "school", "name": "SMA Negeri 6 Halmahera Utara", "school:type_idn": "sma", "short_name": "SMAN 6 Halmahera Utara"}}, {"type": "node", "id": 7437862989, "lat": 1.7251802, "lon": 128.0071807, "tags": {"amenity": "school", "name": "SMA Negeri 1 Halmahera Utara", "school:type_idn": "sma", "short_name": "SMAN 1 Halmahera Utara"}}, {"type": "node", "id": 7437873561, "lat": 1.7630649, "lon": 127.9807475, "tags": {"amenity": "school", "name": "SMA Negeri 9 Halmahera Utara", "school:type_idn": "sma", "short_name": "SMAN 9 Halmahera Utara"}}, {"type": "node", "id": 12390350356, "lat": 1.72246, "lon": 128.006415, "tags": {"addr:district": "Halmahera Utara", "addr:province": "Maluku Utara", "addr:street": "Jl. PDAM Tobelo 006/004 Desa Gosoma", "addr:subdistrict": "Tobelo", "addr:village": "Gosoma", "amenity": "social_facility", "email": "pmihalut@gmail.com", "name": "PMI Kabupaten Halmahera Utara", "operator": "Palang Merah Indonesia", "operator:short": "PMI", "phone": "82267541481", "social_facility": "office"}}, {"type": "node", "id": 13046995894, "lat": 1.7651299, "lon": 127.9719392}, {"type": "node", "id": 13046995895, "lat": 1.7650715, "lon": 127.9718959}, {"type": "node", "id": 13046995896, "lat": 1.7651406, "lon": 127.9718025}, {"type": "node", "id": 13046995897, "lat": 1.765199, "lon": 127.9718458}, {"type": "way", "id": 732732108, "nodes": [6861252477, 6861252478, 6861252479, 6861252480, 6861252477], "tags": {"amenity": "shelter", "building": "yes", "name": "Remote Shelter"}}, {"type": "way", "id": 732736384, "nodes": [6861305796, 6861305797, 6861305798, 6861305799, 6861305796], "tags": {"amenity": "shelter", "building": "yes"}}, {"type": "way", "id": 1419755905, "nodes": [13046995897, 13046995894, 13046995895, 13046995896, 13046995897], "tags": {"amenity": "shelter", "building": "yes", "name": "KPA Lentera Alam"}}]}