{"version": 0.6, "generator": "Overpass API 0.7.62.8 e802775f", "osm3s": {"timestamp_osm_base": "2025-10-16T11:07:55Z", "copyright": "The data included in this document is from www.openstreetmap.org. The data is made available under ODbL."}, "elements": [{"type": "node", "id": 2062779684, "lat": -4.5246038, "lon": 129.9048441}, {"type": "node", "id": 3051861822, "lat": -4.5475941, "lon": 129.9002111, "tags": {"amenity": "school", "is_in:country": "Indonesia", "is_in:county": "Banda", "is_in:region": "Maluku Tengah", "is_in:state": "Maluku", "name": "Walang school"}}, {"type": "node", "id": 3051862292, "lat": -4.5354328, "lon": 129.9305532, "tags": {"amenity": "school", "is_in:country": "Indonesia", "is_in:country_code": "ID", "is_in:county": "Banda", "is_in:region": "Maluku Tengah", "is_in:state": "Maluku", "name": "Kumber school"}}, {"type": "node", "id": 3056239584, "lat": -4.5249101, "lon": 129.9063247}, {"type": "node", "id": 3958654185, "lat": -4.5252787, "lon": 129.897456, "tags": {"amenity": "university", "check_date": "2025-02-25", "name": "Syahril university"}}, {"type": "node", "id": 5315926092, "lat": -4.5253479, "lon": 129.9048452}, {"type": "node", "id": 5315926093, "lat": -4.5256262, "lon": 129.9062408}, {"type": "way", "id": 301560477, "nodes": [5315926093, 3056239584, 2062779684, 5315926092, 5315926093], "tags": {"amenity": "school", "is_in:country": "Indonesia", "is_in:state": "Maluku", "name": "SMA Kg. Baru"}}]}